stop_id,stop_code,stop_name,stop_desc,stop_lat,stop_lon,zone_id,wheelchair_boarding,stop_timezone,stop_url,parent_station,location_type
345,345,CASTELFORTE - GIARDINO DELLA CONCORDIA,,38.176255,13.32601833,1,1,Europe/Rome,,,0
347,347,CASTELFORTE - P.M. 64,,38.18595986,13.32358494,1,1,Europe/Rome,,,0
340,340,CASTELFORTE - BELLINZONA,,38.17783833,13.32547224,1,1,Europe/Rome,,,0
342,342,CASTELFORTE - CHIRONE,,38.19512906,13.31551149,1,1,Europe/Rome,,,0
343,343,CASTELFORTE - DE FONSECA,,38.18095789,13.32512721,1,1,Europe/Rome,,,0
349,349,CASTELFORTE - TRAPANI,,38.17456833,13.32646167,1,1,Europe/Rome,,,0
298,298,CALATAFIMI - RISERVA REALE,,38.09881956,13.31963141,1,1,Europe/Rome,,,0
299,299,CALATAFIMI - ROCCA,,38.09448191,13.30929151,1,1,Europe/Rome,,,0
296,296,CALATAFIMI - RAGUSA MOLETI,,38.10710667,13.34017333,1,1,Europe/Rome,,,0
297,297,CALATAFIMI - REGIONE SICILIANA,,38.10266315,13.3291452,1,1,Europe/Rome,,,0
294,294,CALATAFIMI - PORTA NUOVA,,38.111615,13.3515,1,1,Europe/Rome,,,0
295,295,CALATAFIMI - RAGUSA MOLETI,,38.10664801,13.33917797,1,1,Europe/Rome,,,0
292,292,CALATAFIMI - PINDEMONTE,,38.10748378,13.34125936,1,1,Europe/Rome,,,0
293,293,CALATAFIMI - PINDEMONTE,,38.10776,13.34185167,1,1,Europe/Rome,,,0
290,290,CALATAFIMI - PIETRATAGLIATA,,38.10025663,13.32346511,1,1,Europe/Rome,,,0
291,291,CALATAFIMI - PIETRATAGLIATA,,38.10016621,13.3229949,1,1,Europe/Rome,,,0
270,270,CALATAFIMI - CASERMA TUKORY,,38.10817968,13.34300855,1,1,Europe/Rome,,,0
271,271,CALATAFIMI - CASERMA TUKORY,,38.10848667,13.34362,1,1,Europe/Rome,,,0
272,272,CALATAFIMI - CHINNICI,,38.09935991,13.3210047,1,1,Europe/Rome,,,0
273,273,CALATAFIMI - DE FILIPPO,,38.10201813,13.32783379,1,1,Europe/Rome,,,0
274,274,CALATAFIMI - DE FILIPPO,,38.1021091,13.32779337,1,1,Europe/Rome,,,0
275,275,CALATAFIMI - DRAGO,,38.10361083,13.33177064,1,1,Europe/Rome,,,0
276,276,CALATAFIMI - FONTANA DEL PESCATORE,,38.09235667,13.30573833,1,1,Europe/Rome,,,0
277,277,CALATAFIMI - FONTANA DEL PESCATORE,,38.09244667,13.30578167,1,1,Europe/Rome,,,0
278,278,CALATAFIMI - INDIPENDENZA,,38.11032025,13.34819287,1,1,Europe/Rome,,,0
279,279,CALATAFIMI - LENIN MANCUSO,,38.09949989,13.32160327,1,1,Europe/Rome,,,0
2268,2268,MARCIANO,,38.18351119,13.31493477,1,1,Europe/Rome,,,0
2269,2269,LUSSORIO CAU - BASILE,,38.0946984,13.34166355,1,1,Europe/Rome,,,0
1132,1132,MESSINA MARINE - ACQUA DEI CORSARI,,38.09679833,13.42648833,1,1,Europe/Rome,,,0
2267,2267,ALBANESE - DELLA PACE,,38.13154069,13.35837328,1,1,Europe/Rome,,,0
108,108,AQUINO - CARTIERA,,38.075835,13.31023333,1,1,Europe/Rome,,,0
60000,,STADIO - FANTE,,38.1527429862,13.3402113192,1,1,Europe/Rome,,,1
102,102,AQUILEIA - DELLE ALPI,,38.14356,13.33190167,1,1,Europe/Rome,,,0
103,103,AQUILEIA - LAZIO,,38.14161833,13.33345667,1,1,Europe/Rome,,,0
100,100,APOLLO - AGLAIA,,38.19936,13.317285,1,1,Europe/Rome,,,0
101,101,APOLLO - CATALANO,,38.19812167,13.31454,1,1,Europe/Rome,,,0
106,106,AQUINO - CALO',,38.07461261,13.30829367,1,1,Europe/Rome,,,0
107,107,AQUINO - CARTIERA,,38.07588833,13.31022833,1,1,Europe/Rome,,,0
104,104,AQUILEIA - LAZIO,,38.14174833,13.33316833,1,1,Europe/Rome,,,0
105,105,AQUINO - CALO',,38.07466012,13.30828026,1,1,Europe/Rome,,,0
2046,2046,TORRE - LI GRECI,,38.20863833,13.328705,1,1,Europe/Rome,,,0
2047,2047,TORRE - PIANO GALLO ESTERNA,,38.21038392,13.32802802,1,1,Europe/Rome,,,0
2044,2044,TOMMASO NATALE,,38.17971604,13.29543382,1,1,Europe/Rome,,,0
2045,2045,TOMMASO NATALE,,38.17964245,13.29538326,1,1,Europe/Rome,,,0
2042,2042,TOMMASO NATALE - SOCRATE,,38.18728745,13.28939029,1,1,Europe/Rome,,,0
2043,2043,TOMMASO NATALE - SOCRATE,,38.18660313,13.28983847,1,1,Europe/Rome,,,0
2040,2040,TOMMASO NATALE - PASSAGGIO A LIVELLO,,38.18466855,13.29131126,1,1,Europe/Rome,,,0
2041,2041,TOMMASO NATALE - PASSAGGIO A LIVELLO,,38.1848799833,13.2910205967,1,1,Europe/Rome,,,0
2048,2048,TORRE - PIANO GALLO INTERNA,,38.21045333,13.327935,1,1,Europe/Rome,,,0
2049,2049,TORRE MONDELLO - TETI,,38.20634,13.325295,1,1,Europe/Rome,,,0
1210,1210,MONETA - ERMELLINO,,38.08523322,13.35324602,1,1,Europe/Rome,,,0
99,99,ANTILOPE - GUIDO ROSSA,,38.08233333,13.35709167,1,1,Europe/Rome,,,0
98,98,ANTILOPE - ERMELLINO,,38.08405111,13.35620732,1,1,Europe/Rome,,,0
91,91,AMMIRAGLIO RIZZO - JUNG,,38.14390567,13.3626812525,1,1,Europe/Rome,,,0
90,90,AMMIRAGLIO RIZZO - GENERALE CASCINO,,38.14350667,13.35926167,1,1,Europe/Rome,,,0
93,93,AMMIRAGLIO RIZZO - PIAZZA ACQUASANTA,,38.1443358833,13.36769188,1,1,Europe/Rome,,,0
92,92,AMMIRAGLIO RIZZO - JUNG,,38.144015,13.36322167,1,1,Europe/Rome,,,0
95,95,ANTIGONE - CASTELFORTE,,38.19519833,13.31479833,1,1,Europe/Rome,,,0
94,94,AMMIRAGLIO RIZZO - PIAZZA ACQUASANTA,,38.14434667,13.367305,1,1,Europe/Rome,,,0
97,97,ANTIGONE - PORTA DI MARE,,38.19434384,13.31336707,1,1,Europe/Rome,,,0
96,96,ANTIGONE - NICOTI,,38.193225,13.31168833,1,1,Europe/Rome,,,0
1991,1991,STRASBURGO - BELGIO,,38.15245333,13.33085833,1,1,Europe/Rome,,,0
1990,1990,STRASBURGO - ALDISIO,,38.15452,13.32865833,1,1,Europe/Rome,,,0
1621,1621,RAMPOLLA - MONTINI,,38.14578156,13.36795136,1,1,Europe/Rome,,,0
1992,1992,STRASBURGO - BELGIO,,38.15232667,13.33076167,1,1,Europe/Rome,,,0
1627,1627,REGINA ELENA - IRIS,,38.19975554,13.3283465175,1,1,Europe/Rome,,,0
1626,1626,REGINA ELENA - DELLE ROSE,,38.2009434287,13.3272252313,1,1,Europe/Rome,,,0
1625,1625,REGINA ELENA - COMMISSARIATO P.S.,,38.1984982575,13.3297840925,1,1,Europe/Rome,,,0
1624,1624,REGINA ELENA - CIRCE,,38.2036042622,13.3255298144,1,1,Europe/Rome,,,0
1999,1999,STRASBURGO - FRANCIA,,38.15630833,13.32714833,1,1,Europe/Rome,,,0
1998,1998,STRASBURGO - DE GASPERI,,38.14959,13.33264667,1,1,Europe/Rome,,,0
1629,1629,REGINA ELENA - STABILIMENTO,,38.2028420656,13.3261989478,1,1,Europe/Rome,,,0
559,559,CROCE ROSSA - DE GASPERI,,38.15061826,13.33889902,1,1,Europe/Rome,,,0
558,558,CRISTOFORO COLOMBO 3,,38.17640667,13.366015,1,1,Europe/Rome,,,0
555,555,CRISTOFORO COLOMBO 5,,38.17147333,13.36639167,1,1,Europe/Rome,,,0
554,554,CRISTOFORO COLOMBO 4,,38.17296035,13.36607248,1,1,Europe/Rome,,,0
557,557,CRISTOFORO COLOMBO 2,,38.18048,13.36560333,1,1,Europe/Rome,,,0
551,551,CRISTOFORO COLOMBO 1,,38.18454833,13.36306333,1,1,Europe/Rome,,,0
550,550,CRISTOFORO COLOMBO 5,,38.17145333,13.36630333,1,1,Europe/Rome,,,0
553,553,CRISTOFORO COLOMBO 3,,38.17657021,13.36606443,1,1,Europe/Rome,,,0
552,552,CRISTOFORO COLOMBO 2,,38.18047085,13.365670145,1,1,Europe/Rome,,,0
1191,1191,MICHELANGELO 7,,38.13719736,13.32015366,1,1,Europe/Rome,,,0
1190,1190,MICHELANGELO 6,,38.13609462,13.31641557,1,1,Europe/Rome,,,0
1192,1192,MICHELE PIAZZA,,38.116215,13.34420667,1,1,Europe/Rome,,,0
1759,1759,ROMA - BELMONTE,,38.12496833,13.358765,1,1,Europe/Rome,,,0
1757,1757,ROMA - BANDIERA,,38.11865806,13.36254001,1,1,Europe/Rome,,,0
1756,1756,ROCCO JEMMA,,38.10362567,13.36516052,1,1,Europe/Rome,,,0
1755,1755,ROCCELLA - VITALI,,38.09909167,13.350945,1,1,Europe/Rome,,,0
1754,1754,ROCCELLA - VITALI,,38.09833,13.35062167,1,1,Europe/Rome,,,0
1752,1752,ROCCELLA - S. R. ARCANGELO,,38.09763443,13.3500959,1,1,Europe/Rome,,,0
1751,1751,ROCCELLA - S. R. ARCANGELO,,38.09711833,13.34936167,1,1,Europe/Rome,,,0
1750,1750,ROCCELLA - RAITI,,38.0960967,13.34819555,1,1,Europe/Rome,,,0
1177,1177,MICHELANGELO - CAVA,,38.13274454,13.30817167,1,1,Europe/Rome,,,0
1176,1176,MICHELANGELO - CASALINI,,38.13448698,13.31272891,1,1,Europe/Rome,,,0
1175,1175,MICHELANGELO - BRUNELLESCHI,,38.13558015,13.31480236,1,1,Europe/Rome,,,0
1174,1174,MICHELANGELO - BERNINI,,38.13787553,13.32303724,1,1,Europe/Rome,,,0
1173,1173,MICHELANGELO - BADIA,,38.13669709,13.31799667,1,1,Europe/Rome,,,0
1172,1172,MICHELANGELO - BADIA,,38.13715658,13.31918136,1,1,Europe/Rome,,,0
1171,1171,MESSINA MARINE 1,,38.0973,13.41867667,1,1,Europe/Rome,,,0
1170,1170,MESSINA MARINE 2,,38.09803833,13.41099667,1,1,Europe/Rome,,,0
1179,1179,MICHELANGELO - FRONTINI,,38.13288816,13.30903043,1,1,Europe/Rome,,,0
1178,1178,MICHELANGELO - FELICE,,38.13851852,13.32578688,1,1,Europe/Rome,,,0
1283,1283,OLIO DI LINO 5,,38.08087915,13.31893936,1,1,Europe/Rome,,,0
1282,1282,OLIO DI LINO 4,,38.08130246,13.32069889,1,1,Europe/Rome,,,0
1289,1289,ORETO - BERGAMO,,38.10435667,13.36881667,1,1,Europe/Rome,,,0
1288,1288,ORETO - BERGAMO,,38.10487,13.368395,1,1,Europe/Rome,,,0
1579,1579,POLIBIO - EOLO,,38.197835,13.30859,1,1,Europe/Rome,,,0
1578,1578,POLIBIO - AMARILLI,,38.19731,13307,1,1,Europe/Rome,,,0
689,689,DEL FANTE - DEL BERSAGLIERE,,38.05206215,13.30962926,1,1,Europe/Rome,,,0
688,688,DEL FANTE - DEI CORAZZIERI,,38.05541333,13.31223,1,1,Europe/Rome,,,0
1573,1573,PLAUTO - BAIA DEL CORALLO,,38.19941234,13.26970473,1,1,Europe/Rome,,,0
1572,1572,PITRE' 6,,38.11004333,13.31827333,1,1,Europe/Rome,,,0
1571,1571,PITRE' 5,,38.110365,13.32227667,1,1,Europe/Rome,,,0
1570,1570,PITRE' 3,,38.11035333,13.32294,1,1,Europe/Rome,,,0
1577,1577,PLAUTO - LEONE,,38.19782833,13.27234167,1,1,Europe/Rome,,,0
1576,1576,PLAUTO - FLORIO,,38.19840667,13.27098667,1,1,Europe/Rome,,,0
1575,1575,PLAUTO - FLORIO,,38.19876,13.27060667,1,1,Europe/Rome,,,0
1574,1574,PLAUTO - BAIA DEL CORALLO,,38.19904241,13.27013388,1,1,Europe/Rome,,,0
1348,1348,PANDOLFINI,,38.1131117,13.30643253,1,1,Europe/Rome,,,0
1240,1240,NENNI - CROCE ROSSA ITALIANA,,38.15504333,13.32004333,1,1,Europe/Rome,,,0
1223,1223,MORMINO,,38.17547113,13.31196559,1,1,Europe/Rome,,,0
1222,1222,MONTUORO,,38.12526566,13.33083862,1,1,Europe/Rome,,,0
1221,1221,MONTEPELLEGRINO - MONTALBO,,38.13803965,13.35825652,1,1,Europe/Rome,,,0
1220,1220,MONTEPELLEGRINO - MONTALBO,,38.13745448,13.35858643,1,1,Europe/Rome,,,0
1371,1371,PAPA SERGIO - VILLA IGIEA,,38.14566167,13.36998833,1,1,Europe/Rome,,,0
1370,1370,PAPA SERGIO - TONNARA,,38.15145167,13.370695,1,1,Europe/Rome,,,0
1373,1373,PAPIRETO - PIAZZA DEL NOVIZIATO,,38.11679333,13.35197167,1,1,Europe/Rome,,,0
404,404,CENTURIPE - AUGUSTA,,38.13225589,13.29363138,1,1,Europe/Rome,,,0
402,402,CENTURIPE - ALIA,,38.13227443,13.29573935,1,1,Europe/Rome,,,0
1377,1377,PARCHEGGIO BASILE CORSIA ESTERNA,,38.09775167,13.345455,1,1,,,30000,0
400,400,CENTURIPE - ACIREALE,,38.13115351,13.30093101,1,1,Europe/Rome,,,0
1379,1379,PARCHEGGIO DEGLI EMIRI,,38.11638167,13.33168167,1,1,,,40000,0
1378,1378,PARCHEGGIO BASILE CORSIA INTERNA,,38.09788333,13.34533667,1,1,,,30000,0
452,452,CIACULLI 5,,38.08052234,13.39913204,1,1,Europe/Rome,,,0
453,453,CIACULLI 5,,38.08054667,13.39916833,1,1,Europe/Rome,,,0
454,454,CIACULLI 6,,38.07605894,13.40666369,1,1,Europe/Rome,,,0
372,372,CASTELLANA - TEMBIEN,,38.12561923,13.30892667,1,1,Europe/Rome,,,0
376,376,CASTELLANA - VILLA DELLE GINESTRE,,38.12574478,13.29671726,1,1,Europe/Rome,,,0
390,390,CAVOUR,,38.12148497,13.35908431,1,1,Europe/Rome,,,0
398,398,CENTORBE,,38.133445,13.307915,1,1,Europe/Rome,,,0
244,244,BRIGATA VERONA - SICILIA,,38.14468521,13.34064427,1,1,Europe/Rome,,,0
243,243,BRIGATA VERONA - SICILIA,,38.14453333,13.34050203,1,1,Europe/Rome,,,0
242,242,BRIGATA VERONA - LIGURIA,,38.14325253,13.33853745,1,1,Europe/Rome,,,0
249,249,BRUNELLESCHI - BESIO,,38.13702487,13.31355805,1,1,Europe/Rome,,,0
248,248,BRUNELLESCHI - BESIO,,38.13732333,13.31366947,1,1,Europe/Rome,,,0
2275,2275,LEVRIERE - BASSOTTO,,38.08464037,13.36584925,1,1,Europe/Rome,,,0
2274,2274,LEVRIERE - SEGUGIO,,38.08173777,13.36350683,1,1,Europe/Rome,,,0
2277,2277,LAUDICINA - BERTETT,,38.09706333,13.41323833,1,1,Europe/Rome,,,0
2276,2276,AUSONIA - VALDEMONE,,38.14752982,13.33665173,1,1,Europe/Rome,,,0
2271,2271,BASILE - RE RUGGERO,,38.10743958,13.35428791,1,1,Europe/Rome,,,0
2270,2270,LUSSORIO CAU - ZACCO,,38.09314477,13.34394343,1,1,Europe/Rome,,,0
2273,2273,LEVRIERE - ANTILOPE,,38.08074013,13.36102363,1,1,Europe/Rome,,,0
2272,2272,ANTILOPE - ROSSA,,38.08218335,13.35705816,1,1,Europe/Rome,,,0
2279,2279,VILLAGRAZIA - SAN FRANCESCO DI SALES,,38.08661904,13.34529721,1,1,Europe/Rome,,,0
2278,2278,ALTOFONTE - DI FACCIO,,38.0770623,13.32601463,1,1,Europe/Rome,,,0
178,178,BASILE - PARCHEGGIO BASILE,,38.09755667,13.34550833,1,1,Europe/Rome,,,0
177,177,BASILE - MEDAGLIE D'ORO,,38.09649776,13.3437109,1,1,Europe/Rome,,,0
176,176,BASILE - FACOLTA' DI LETTERE,,38.10283946,13.34879905,1,1,Europe/Rome,,,0
175,175,BASILE - FACOLTA' DI INGEGNERIA,,38.10545133,13.35137799,1,1,Europe/Rome,,,0
174,174,BASILE - FACOLTA' DI INGEGNERIA,,38.10368,13.34967333,1,1,Europe/Rome,,,0
173,173,BASILE - FACOLTA' DI ECONOMIA E COMMERCIO,,38.10424667,13.35003,1,1,Europe/Rome,,,0
172,172,BASILE - BRASA,,38.09564498,13.34209621,1,1,Europe/Rome,,,0
2051,2051,TORRETTA,,38.19772833,13.27302,1,1,Europe/Rome,,,0
1502,1502,PIAZZA TOMMASO NATALE - PIAZZA MANDORLE,,38.18839694,13.28802154,1,1,Europe/Rome,,,0
2053,2053,TORRETTA - COSMA E DAMIANO,,38.19842902,13.27615678,1,1,Europe/Rome,,,0
2052,2052,TORRETTA - CATULLO,,38.19798742,13.27473924,1,1,Europe/Rome,,,0
2055,2055,TRABUCCO - GIUFFRE',,38.14953167,13.315465,1,1,Europe/Rome,,,0
2054,2054,TRABUCCO - CERVELLO,,38.14858833,13.31538167,1,1,Europe/Rome,,,0
2057,2057,TRABUCCO - PRESTIGIACOMO,,38.14725833,13.31553167,1,1,Europe/Rome,,,0
2056,2056,TRABUCCO - OSPEDALE CERVELLO,,38.15385333,13.31566333,1,1,Europe/Rome,,,0
2059,2059,TRABUCCO - ROENTGEN,,38.151395,13.31549,1,1,Europe/Rome,,,0
1501,1501,PIAZZA TOMMASO NATALE - PIAZZA MANDORLE,,38.18852309,13.28796818,1,1,Europe/Rome,,,0
1506,1506,PIAZZA VILLACIAMBRA,,38.05950885,13.31783026,1,1,Europe/Rome,,,0
651,651,DEI MILLE - SCUOLA NATOLI,,38.090801,13.4145844,1,1,Europe/Rome,,,0
1972,1972,STAZIONE CENTRALE - ARDIZZONE 2,,38.10997836,13.36617172,1,1,,,20000,0
1971,1971,STAZIONE CENTRALE - ARDIZZONE 1,,38.10996333,13.36615333,1,1,,,20000,0
1970,1970,STADIO,,38.15336667,13.34013833,1,1,,,60000,0
1968,1968,STABILE - PIAZZALE UNGHERIA,,38.1220902,13.35540399,1,1,Europe/Rome,,,0
1619,1619,RAMPOLLA - BONANNO,,38.14752813,13.3660537,1,1,Europe/Rome,,,0
1616,1616,RAITI,,38.09643833,13.34665833,1,1,Europe/Rome,,,0
1617,1617,RAITI,,38.09687167,13.34612333,1,1,Europe/Rome,,,0
1966,1966,SS. MEDIATRICE - REGIONE SICILIANA,,38.10047178,13.33287207,1,1,Europe/Rome,,,0
1615,1615,RABIN - SCALA VECCHIA,,38.14679333,13.35702167,1,1,Europe/Rome,,,0
1612,1612,R.T. MARCONI,,38.20141833,13.26768167,1,1,Europe/Rome,,,0
1613,1613,RABIN - AMMIRAGLIO RIZZO,,38.14375862,13.35747868,1,1,Europe/Rome,,,0
1610,1610,PUNTA BARCARELLO,,38.20857,13.28244333,1,1,Europe/Rome,,,0
1611,1611,PUNTA BARCARELLO,,38.20848667,13.28235,1,1,Europe/Rome,,,0
1768,1768,ROMA - POSTE,,38.120872278,13.361525354,1,1,Europe/Rome,,,0
1769,1769,ROMA - S. DOMENICO,,38.119205,13.36230833,1,1,Europe/Rome,,,0
1762,1762,ROMA - FS,,38.11196214,13.36591959,1,1,Europe/Rome,,,0
1763,1763,ROMA - LATTARINI,,38.11574173,13.36398304,1,1,Europe/Rome,,,0
1761,1761,ROMA - FIUME,,38.1122955767,13.3657121667,1,1,Europe/Rome,,,0
1766,1766,ROMA - PALAZZO GANCI,,38.11383,13.36500167,1,1,Europe/Rome,,,0
1767,1767,ROMA - POSTE,,38.12021325,13.36178362,1,1,Europe/Rome,,,0
1764,1764,ROMA - LATTARINI,,38.1155261,13.36418132,1,1,Europe/Rome,,,0
1765,1765,ROMA - PALAZZO GANCI,,38.11397752,13.36482257,1,1,Europe/Rome,,,0
1142,1142,MESSINA MARINE - CAPPELLO,,38.10667,13.384345,1,1,Europe/Rome,,,0
1143,1143,MESSINA MARINE - CAPPELLO,,38.10678833,13.38389333,1,1,Europe/Rome,,,0
1140,1140,MESSINA MARINE - BUCCHERI LA FERLA,,38.1061,13.38667833,1,1,Europe/Rome,,,0
1141,1141,MESSINA MARINE - BUCCHERI LA FERLA,,38.10648667,13.38568667,1,1,Europe/Rome,,,0
1147,1147,MESSINA MARINE - CLOBER,,38.10331167,13.39327,1,1,Europe/Rome,,,0
1144,1144,MESSINA MARINE - CARACAUSI,,38.100045,13.402815,1,1,Europe/Rome,,,0
1145,1145,MESSINA MARINE - CARACAUSI,,38.10042833,13.40179333,1,1,Europe/Rome,,,0
1148,1148,MESSINA MARINE - D' AOSTA,,38.105435,13.38859,1,1,Europe/Rome,,,0
1149,1149,MESSINA MARINE - D' AOSTA,,38.10586167,13.387675,1,1,Europe/Rome,,,0
692,692,DEL FANTE - PIAZZA NISCEMI,,38.16192099,13.33371075,1,1,Europe/Rome,,,0
1547,1547,PITRE' - AEROCLUB,,38.10944652,13.3121708,1,1,Europe/Rome,,,0
1544,1544,PISANI - INGRIA,,38.10648656,13.34499031,1,1,Europe/Rome,,,0
691,691,DEL FANTE - PIANO MAGLIO,,38.0507727,13.3088549875,1,1,Europe/Rome,,,0
1542,1542,PISANI - INDIPENDENZA,,38.10908022,13.34972151,1,1,Europe/Rome,,,0
697,697,DEL FANTE - TEATRO DELLA VERDURA,,38.16045795,13.33478656,1,1,Europe/Rome,,,0
694,694,DEL FANTE - PIAZZETTA SALERNO,,38.15545253,13.33863884,1,1,Europe/Rome,,,0
695,695,DEL FANTE - STADIO DELLE PALME,,38.15423872,13.33952531,1,1,Europe/Rome,,,0
698,698,DEL FANTE - VILLA ROSATO,,38.16129654,13.33428688,1,1,Europe/Rome,,,0
699,699,DEL VESPRO - DELLE CLINICHE,,38.10551333,13.36262833,1,1,Europe/Rome,,,0
1548,1548,PITRE' - AEROCLUB,,38.10946167,13.31131,1,1,Europe/Rome,,,0
1549,1549,PITRE' - ALTARELLO,,38.11046167,13.336315,1,1,Europe/Rome,,,0
542,542,CRISTOFORO COLOMBO - PIETRO ROMBULO,,38.193020835,13.34129583,1,1,Europe/Rome,,,0
543,543,CRISTOFORO COLOMBO - ROOSEVELT,,38.19017305,13.34547579,1,1,Europe/Rome,,,0
540,540,CRISTOFORO COLOMBO - PIETRO DE GUEVARA,,38.188933335,13.34838667,1,1,Europe/Rome,,,0
541,541,CRISTOFORO COLOMBO - PIETRO ROMBULO,,38.19314,13.34096,1,1,Europe/Rome,,,0
547,547,CRISTOFORO COLOMBO - VERGINE MARIA,,38.16699333,13.366205,1,1,Europe/Rome,,,0
544,544,CRISTOFORO COLOMBO - ROOSEVELT,,38.1899525,13.345955835,1,1,Europe/Rome,,,0
545,545,CRISTOFORO COLOMBO - VERGINE MARIA,,38.16652668,13.36598933,1,1,Europe/Rome,,,0
548,548,CRISTOFORO COLOMBO 1,,38.18503333,13.36246333,1,1,Europe/Rome,,,0
549,549,CRISTOFORO COLOMBO 4,,38.17298333,13.36603833,1,1,Europe/Rome,,,0
764,764,ERMELLINO - LONTRA,,38.08565681,13.35858777,1,1,Europe/Rome,,,0
765,765,ERMELLINO - LONTRA,,38.08570256,13.35885425,1,1,Europe/Rome,,,0
414,414,CHIAVELLI - COLNAGO,,38.08578031,13.36922005,1,1,Europe/Rome,,,0
410,410,CHIAVELLI - AL CASALE,,38.09159522,13.3687447,1,1,Europe/Rome,,,0
411,411,CHIAVELLI - BAGNERA,,38.08198017,13.36760938,1,1,Europe/Rome,,,0
412,412,CHIAVELLI - CADUTI DELL'8 LUGLIO 1960,,38.09654716,13.36884624,1,1,Europe/Rome,,,0
413,413,CHIAVELLI - CARDINALE,,38.07998185,13.36815119,1,1,Europe/Rome,,,0
1384,1384,PARISIO - FALCANDO,,38.12580667,13.33747,1,1,Europe/Rome,,,0
1386,1386,PARISIO - LANCIA DI BROLO,,38.12505236,13.33427975,1,1,Europe/Rome,,,0
1387,1387,PARLATORE - ADRIA,,38.12511167,13.34364,1,1,Europe/Rome,,,0
418,418,CHIAVELLI - PLEIADI,,38.09313198,13.36866424,1,1,Europe/Rome,,,0
1381,1381,PARCHEGGIO GALATEA,,38.20104,13.32267,1,1,Europe/Rome,,,0
1382,1382,PARCHEGGIO MONGIBELLO ALTO,,38.20719727,13.32191393,1,1,Europe/Rome,,,0
1383,1383,PARCHEGGIO MONGIBELLO BASSO,,38.2070687,13.32284599,1,1,Europe/Rome,,,0
368,368,CASTELLANA - S. ISIDORO,,38.12556754,13.29897165,1,1,Europe/Rome,,,0
366,366,CASTELLANA - ROCCAZZO,,38.12571629,13.31136078,1,1,Europe/Rome,,,0
367,367,CASTELLANA - ROGAZIONISTI,,38.12563942,13.30097628,1,1,Europe/Rome,,,0
364,364,CASTELLANA - PANTALICA,,38.12583722,13.29229893,1,1,Europe/Rome,,,0
362,362,CASTELLANA - MODICA,,38.12579753,13.2983923,1,1,Europe/Rome,,,0
363,363,CASTELLANA - MONTEVAGO,,38.12546309,13.29345435,1,1,Europe/Rome,,,0
360,360,CASTELLANA - LERCARA,,38.12584922,13.30003088,1,1,Europe/Rome,,,0
380,380,CASTELLOTTI - AGESIA DI SIRACUSA,,38.1813752,13.31575828,1,1,Europe/Rome,,,0
381,381,CASTELLOTTI - MARCIANO,,38.18297286,13.31461353,1,1,Europe/Rome,,,0
385,385,CATALANO - LOI,,38.10413822,13.34167615,1,1,Europe/Rome,,,0
386,386,CATULLO,,38.19771234,13.2746467,1,1,Europe/Rome,,,0
387,387,CAVARRETTA - CASTELFORTE,,38.19668052,13.31538007,1,1,Europe/Rome,,,0
388,388,CAVARRETTA - SALINE,,38.19823,13.318295,1,1,Europe/Rome,,,0
389,389,CAVARRETTA - TUBEROSA,,38.19741934,13.31676274,1,1,Europe/Rome,,,0
1743,1743,ROCCAZZO - MASSAUA,,38.12350394,13.31009477,1,1,Europe/Rome,,,0
1253,1253,NOCE - LITTARA,,38.12115859,13.33528742,1,1,Europe/Rome,,,0
2190,2190,VITTORIO EMANUELE - S. MARIA DELLA CATENA,,38.11888385,13.36924553,1,1,Europe/Rome,,,0
2191,2191,VITTORIO EMANUELE - UMBERTO I,,38.07904667,13.439045,1,1,Europe/Rome,,,0
2192,2192,VITTORIO EMANUELE - VILLA BONANNO,,38.11292024,13.35469991,1,1,Europe/Rome,,,0
259,259,CADUTI SUL LAVORO 1,,38.18889171,13.29434586,1,1,Europe/Rome,,,0
2194,2194,VITTORIO EMANUELE - VUCCIRIA,,38.11685805,13.3642593,1,1,Europe/Rome,,,0
2195,2195,VITTORIO EMANUELE - XXIV MAGGIO,,38.076955,13.44472167,1,1,Europe/Rome,,,0
2196,2196,VOLTURNO - CAPO,,38.119525,13.35391333,1,1,Europe/Rome,,,0
252,252,BRUNELLESCHI - VANVITELLI,,38.13990562,13.31418976,1,1,Europe/Rome,,,0
253,253,BUONRIPOSO,,38.10258815,13.37397758,1,1,Europe/Rome,,,0
250,250,BRUNELLESCHI - BUONFORNELLO,,38.138805,13.313955,1,1,Europe/Rome,,,0
251,251,BRUNELLESCHI - BUONFORNELLO,,38.13884943,13.31389906,1,1,Europe/Rome,,,0
257,257,BUONRIPOSO - PIAZZA SCAFFA,,38.10379009,13.3743357,1,1,Europe/Rome,,,0
255,255,BUONRIPOSO - ORETO,,38.10089419,13.37355224,1,1,Europe/Rome,,,0
2204,2204,ZAPPA,,38.17820167,13.31241667,1,1,Europe/Rome,,,0
2206,2206,ZAPPALA',,38.1385493,13.3354791,1,1,Europe/Rome,,,0
2207,2207,ZAPPALA',,38.13911667,13.3353,1,1,Europe/Rome,,,0
2208,2208,ZONA INDUSTRIALE - CITTA' GIARDINO,,38.16637,13.30500167,1,1,Europe/Rome,,,0
169,169,BASILE - ARTALE,,38.10032458,13.34709853,1,1,Europe/Rome,,,0
164,164,BARCARELLO 4,,38.204784,13.28096464,1,1,Europe/Rome,,,0
165,165,BARILLAI - S. SEBASTIANO,,38.12096669,13.36602852,1,1,Europe/Rome,,,0
167,167,BASILE - ANELLI,,38.0952904875,13.34194104,1,1,Europe/Rome,,,0
161,161,BARCARELLO 1,,38.20467,13.280885,1,1,Europe/Rome,,,0
162,162,BARCARELLO 2,,38.20638667,13.282455,1,1,Europe/Rome,,,0
163,163,BARCARELLO 3,,38.20656498,13.28241035,1,1,Europe/Rome,,,0
70000,,CROCI - MORDINI,,38.130056775,13.352247595,1,1,Europe/Rome,,,1
1814,1814,S. LORENZO - MARINAI D'ITALIA,,38.16360037,13.32210008,1,1,Europe/Rome,,,0
1815,1815,S. LORENZO - SAVAGNONE,,38.16735333,13.31487715,1,1,Europe/Rome,,,0
1816,1816,S. LORENZO - SAVAGNONE,,38.16718313,13.31504302,1,1,Europe/Rome,,,0
1817,1817,S. LORENZO - SERRETTA,,38.16059225,13.32856799,1,1,Europe/Rome,,,0
1810,1810,S. LORENZO - LARGO S. LORENZO,,38.16084113,13.32725555,1,1,Europe/Rome,,,0
1811,1811,S. LORENZO - LARGO S. LORENZO,,38.16071333,13.32761167,1,1,Europe/Rome,,,0
1812,1812,S. LORENZO - LO VALVO,,38.1693714,13.31014842,1,1,Europe/Rome,,,0
1813,1813,S. LORENZO - LO VALVO,,38.16954823,13.30654664,1,1,Europe/Rome,,,0
1818,1818,S. LORENZO - STAZIONE FS,,38.164515,13.31878667,1,1,Europe/Rome,,,0
1819,1819,S. LORENZO - VALLOTTA,,38.16932711,13.30830023,1,1,Europe/Rome,,,0
80000,,STURZO - POLITEAMA,,38.1255963167,13.3571653633,1,1,Europe/Rome,,,1
1609,1609,PUGLISI BERTOLINO,,38.126710018,13.357305124,1,1,Europe/Rome,,,0
1608,1608,PROTEZIONE CIVILE,,38.155885,13.34453833,1,1,Europe/Rome,,,0
1979,1979,STAZIONE CENTRALE - GIULIO CESARE,,38.109873165,13.366441835,1,1,,,20000,0
1976,1976,STAZIONE CENTRALE - CUPANI 1,,38.10938169,13.36659633,1,1,,,20000,0
1603,1603,PRINCIPE DI SCALEA - AMAP,,38.19953941,13.3271635814,1,1,Europe/Rome,,,0
1602,1602,PRINCIPE DI PALAGONIA - CARCERE MINORILE,,38.13395167,13.33656167,1,1,Europe/Rome,,,0
1605,1605,PRINCIPE DI SCALEA - MONDELLO,,38.20469183,13.3241049678,1,1,Europe/Rome,,,0
1604,1604,PRINCIPE DI SCALEA - GALATEA,,38.2013025329,13.3255232743,1,1,Europe/Rome,,,0
1607,1607,PRINCIPE DI SCALEA - VALDESI,,38.1969550029,13.3310235714,1,1,Europe/Rome,,,0
1606,1606,PRINCIPE DI SCALEA - OLEANDRI,,38.1983704529,13.32848975,1,1,Europe/Rome,,,0
808,808,FALSOMIELE - PECORARO,,38.0783498,13.36941317,1,1,Europe/Rome,,,0
803,803,FALCONARA 2,,38.11738423,13.29119805,1,1,Europe/Rome,,,0
802,802,FALCONARA 3,,38.11749012,13.28986964,1,1,Europe/Rome,,,0
801,801,FALCONARA 4,,38.11666277,13.28881935,1,1,Europe/Rome,,,0
807,807,FALSOMIELE - LUCCHICELLI,,38.0789927,13.37170511,1,1,Europe/Rome,,,0
805,805,FALSOMIELE - BARRESI,,38.08004836,13.37283433,1,1,Europe/Rome,,,0
1775,1775,ROTOLI 2,,38.162155,13.370575,1,1,Europe/Rome,,,0
1774,1774,ROTOLI 1,,38.15880667,13.37121667,1,1,Europe/Rome,,,0
1777,1777,ROTOLI 3,,38.16338872,13.36987048,1,1,Europe/Rome,,,0
1776,1776,ROTOLI 3,,38.16389,13.36974333,1,1,Europe/Rome,,,0
1084,1084,MALASPINA - PIAZZA ZIINO,,38.13032013,13.33880246,1,1,Europe/Rome,,,0
1770,1770,ROMA - STABILE,,38.12357833,13.35974667,1,1,Europe/Rome,,,0
1772,1772,ROMA - VUCCIRIA,,38.11702833,13.363385,1,1,Europe/Rome,,,0
1779,1779,ROTOLI 1,,38.15909833,13.37134833,1,1,Europe/Rome,,,0
1778,1778,ROTOLI 2,,38.16161167,13.37072167,1,1,Europe/Rome,,,0
608,608,DE GASPERI - STRASBURGO,,38.14931596,13.33359146,1,1,Europe/Rome,,,0
1159,1159,MESSINA MARINE - RAVENNA,,38.10091,13.40008833,1,1,Europe/Rome,,,0
1158,1158,MESSINA MARINE - PIAZZETTA SPERONE,,38.09954833,13.40443333,1,1,Europe/Rome,,,0
1155,1155,MESSINA MARINE - LI GOTTI,,38.09690667,13.4214,1,1,Europe/Rome,,,0
1154,1154,MESSINA MARINE - LAUDICINA,,38.09791833,13.412975,1,1,Europe/Rome,,,0
1157,1157,MESSINA MARINE - PALUMBO,,38.101255,13.399435,1,1,Europe/Rome,,,0
1156,1156,MESSINA MARINE - PALUMBO,,38.1016,13.39823667,1,1,Europe/Rome,,,0
1151,1151,MESSINA MARINE - FIUME ORETO,,38.109285855,13.3798404283,1,1,Europe/Rome,,,0
1150,1150,MESSINA MARINE - DIAZ,,38.1031989467,13.39377572,1,1,Europe/Rome,,,0
1153,1153,MESSINA MARINE - BERTETT,,38.09774667,13.41451,1,1,Europe/Rome,,,0
1152,1152,MESSINA MARINE - LAUDICINA,,38.09786,13.41288167,1,1,Europe/Rome,,,0
59,59,ALTOFONTE - CALVARUSO,,38.0656616,13.32532704,1,1,Europe/Rome,,,0
58,58,ALTOFONTE - CALVARUSO,,38.06583167,13.325275,1,1,Europe/Rome,,,0
1551,1551,PITRE' - CAMARDA,,38.11048589,13.33373102,1,1,Europe/Rome,,,0
1550,1550,PITRE' - CAMARDA,,38.11040044,13.33632141,1,1,Europe/Rome,,,0
1552,1552,PITRE' - GENERALE SALEMI,,38.11043167,13.334105,1,1,Europe/Rome,,,0
1555,1555,PITRE' - MADONNA DEL SOCCORSO,,38.11053333,13.3244,1,1,Europe/Rome,,,0
1554,1554,PITRE' - MADONNA DEL SOCCORSO,,38.11055,13.325425,1,1,Europe/Rome,,,0
1557,1557,PITRE' - PALCHETTO,,38.110515,13.33142667,1,1,Europe/Rome,,,0
1556,1556,PITRE' - PALCHETTO,,38.11048167,13.33153667,1,1,Europe/Rome,,,0
1559,1559,PITRE' - PINDEMONTE,,38.11057167,13.33946333,1,1,Europe/Rome,,,0
54,54,ALOI 1,,38.07652029,13.35521221,1,1,Europe/Rome,,,0
56,56,ALOI 3,,38.0841315,13.35293368,1,1,Europe/Rome,,,0
51,51,ALOI - GRAFFEO,,38.08118845,13.35385501,1,1,Europe/Rome,,,0
50,50,ALOI - FALSOMIELE,,38.07499511,13.35562812,1,1,Europe/Rome,,,0
53,53,ALOI - VITALE,,38.08274866,13.35336417,1,1,Europe/Rome,,,0
537,537,CRISTOFORO COLOMBO - MARCANTONIO COLONNA,,38.18262833,13.36467,1,1,Europe/Rome,,,0
536,536,CRISTOFORO COLOMBO - MAGELLANO,,38.18979333,13.35899667,1,1,Europe/Rome,,,0
535,535,CRISTOFORO COLOMBO - MAGELLANO,,38.18975143,13.35892171,1,1,Europe/Rome,,,0
534,534,CRISTOFORO COLOMBO - LORENZO MARQUES,,38.18868,13.35099333,1,1,Europe/Rome,,,0
533,533,CRISTOFORO COLOMBO - LORENZO MARQUES,,38.18861,13.35134667,1,1,Europe/Rome,,,0
532,532,CRISTOFORO COLOMBO - DE VEGA,,38.18669668,13.36086094,1,1,Europe/Rome,,,0
531,531,CRISTOFORO COLOMBO - DE VEGA,,38.186645,13.36081667,1,1,Europe/Rome,,,0
1558,1558,PITRE' - PIAZZA MICCA,,38.10923167,13.30977833,1,1,Europe/Rome,,,0
539,539,CRISTOFORO COLOMBO - PIETRO DE GUEVARA,,38.18883333,13.34874333,1,1,Europe/Rome,,,0
538,538,CRISTOFORO COLOMBO - MARCANTONIO COLONNA,,38.18266667,13.364725,1,1,Europe/Rome,,,0
429,429,CIACULLI - CARRUBELLA,,38.08404599,13.39510337,1,1,Europe/Rome,,,0
428,428,CIACULLI - BOZZO,,38.07874884,13.4013623,1,1,Europe/Rome,,,0
1399,1399,PARTANNA MONDELLO - IANDOLINO,,38.19600333,13.30816667,1,1,Europe/Rome,,,0
1398,1398,PARTANNA MONDELLO - DIONISO,,38.19612927,13.3082618,1,1,Europe/Rome,,,0
421,421,CHIAVELLI - SEMILIA,,38.08336197,13.36816862,1,1,Europe/Rome,,,0
420,420,CHIAVELLI - SCIACCA,,38.08528947,13.36854413,1,1,Europe/Rome,,,0
1395,1395,PARTANNA MONDELLO - CHIMERA,,38.19445005,13.30477755,1,1,Europe/Rome,,,0
1393,1393,PARTANNA MONDELLO - AMARILLI,,38.19538413,13.3064121,1,1,Europe/Rome,,,0
1392,1392,PARLAVECCHIO - TRICOMI,,38.10093167,13.36022167,1,1,Europe/Rome,,,0
427,427,CIACULLI - BOZZO,,38.07879667,13.40122667,1,1,Europe/Rome,,,0
426,426,CHIRONE - PORTA DI MARE,,38.19363133,13.31436753,1,1,Europe/Rome,,,0
530,530,CRISTOFORO COLOMBO - CARONIA ROBERTI,,38.19116,13.344096665,1,1,Europe/Rome,,,0
1503,1503,PIAZZA TOMMASO NATALE - STAZIONE FS,,38.18965578,13.28622711,1,1,Europe/Rome,,,0
2183,2183,VITTORIO EMANUELE - ISTITUTO NAUTICO,,38.11939451,13.37064967,1,1,Europe/Rome,,,0
2182,2182,VITTORIO EMANUELE - FONTANA DEL GARRAFFO,,38.11805877,13.36724594,1,1,Europe/Rome,,,0
2181,2181,VITTORIO EMANUELE - EUROPA,,38.08037,13.43633833,1,1,Europe/Rome,,,0
2180,2180,VITTORIO EMANUELE - DE GASPERI,,38.07639,13.44668167,1,1,Europe/Rome,,,0
2186,2186,VITTORIO EMANUELE - PORTA NUOVA,,38.11223227,13.35298732,1,1,Europe/Rome,,,0
229,229,BONANNO 5,,38.16003234,13.34979147,1,1,Europe/Rome,,,0
2184,2184,VITTORIO EMANUELE - ISTITUTO NAUTICO,,38.1193597,13.37041497,1,1,Europe/Rome,,,0
227,227,BONANNO 3,,38.15481768,13.36643994,1,1,Europe/Rome,,,0
226,226,BONANNO 2,,38.15042421,13.36671889,1,1,Europe/Rome,,,0
2189,2189,VITTORIO EMANUELE - S. MARIA DELLA CATENA,,38.11874036,13.36904839,1,1,Europe/Rome,,,0
2188,2188,VITTORIO EMANUELE - QUATTRO CANTI,,38.11622498,13.36270094,1,1,Europe/Rome,,,0
223,223,BONANNO - MEZZ'ARANCIO,,38.15419112,13.36142134,1,1,Europe/Rome,,,0
222,222,BONANNO - MEZZ'ARANCIO,,38.15427141,13.36090118,1,1,Europe/Rome,,,0
221,221,BONANNO - FORESTALE,,38.14922221,13.36002617,1,1,Europe/Rome,,,0
220,220,BONANNO - FORESTALE,,38.14981674,13.36254805,1,1,Europe/Rome,,,0
2211,2211,ZONA INDUSTRIALE - NENNI,,38.15193174,13.32282863,1,1,Europe/Rome,,,0
2217,2217,ALLORO - ABATELLIS,,38.116495,13.370525,1,1,Europe/Rome,,,0
2216,2216,FONTANA DEL DRAGO - PALERMO,,38.08516145,13.2946122,1,1,Europe/Rome,,,0
2214,2214,ZUMBO,,38.13561667,13.30609333,1,1,Europe/Rome,,,0
2219,2219,GARIBALDI,,38.11361667,13.366875,1,1,Europe/Rome,,,0
2218,2218,ALLORO - COCCHIERI,,38.11522333,13.36739833,1,1,Europe/Rome,,,0
151,151,BACHELET 1,,38.08603167,13.33321479,1,1,Europe/Rome,,,0
152,152,BACHELET 2,,38.08748233,13.33511987,1,1,Europe/Rome,,,0
1161,1161,MESSINA MARINE - SAETTA,,38.107565,13.38208667,1,1,Europe/Rome,,,0
1807,1807,S. LORENZO - DEI QUARTIERI,,38.16178167,13.324525,1,1,Europe/Rome,,,0
1806,1806,S. LORENZO - CORSICA,,38.1579,13.33089333,1,1,Europe/Rome,,,0
1805,1805,S. LORENZO - CORSICA,,38.15833976,13.3307245,1,1,Europe/Rome,,,0
1804,1804,S. LORENZO - COMMISSARIATO P.S.,,38.16496255,13.31815688,1,1,Europe/Rome,,,0
1803,1803,S. LORENZO - CLINICA STAGNO,,38.16795969,13.3137357,1,1,Europe/Rome,,,0
1802,1802,S. LORENZO - CLINICA STAGNO,,38.16927667,13.31049333,1,1,Europe/Rome,,,0
1801,1801,S. LORENZO - CLINICA STAGNO,,38.1685168,13.31310893,1,1,Europe/Rome,,,0
1800,1800,S. LORENZO - ASTORINO,,38.16286993,13.32324784,1,1,Europe/Rome,,,0
1809,1809,S. LORENZO - INGEGNEROS,,38.1594492,13.33003432,1,1,Europe/Rome,,,0
1808,1808,S. LORENZO - INGEGNEROS,,38.15963531,13.3300293,1,1,Europe/Rome,,,0
1948,1948,SFERRACAVALLO - PIAZZA TOMMASO NATALE,,38.191534792,13.28440521,1,1,Europe/Rome,,,0
1949,1949,SIMONE GULI' - CALCEDONIO,,38.14148248,13.36696565,1,1,Europe/Rome,,,0
1942,1942,SFERRACAVALLO - DELL'ARANCIO,,38.19578608,13.27992792,1,1,Europe/Rome,,,0
1943,1943,SFERRACAVALLO - DELL'ARANCIO,,38.1960327,13.27926464,1,1,Europe/Rome,,,0
1940,1940,SFERRACAVALLO - DELEGAZIONE,,38.19383564,13.28247466,1,1,Europe/Rome,,,0
1941,1941,SFERRACAVALLO - DELEGAZIONE,,38.1934395,13.28274161,1,1,Europe/Rome,,,0
1946,1946,SFERRACAVALLO - NICOLETTI,,38.194418606,13.281767314,1,1,Europe/Rome,,,0
1947,1947,SFERRACAVALLO - PASSAGGIO A LIVELLO,,38.19115618,13.28482995,1,1,Europe/Rome,,,0
1944,1944,SFERRACAVALLO - MANDERINO,,38.19716574,13.27778385,1,1,Europe/Rome,,,0
1945,1945,SFERRACAVALLO - MANDERINO,,38.19723279,13.27756226,1,1,Europe/Rome,,,0
818,818,FANTE - INAIL,,38.15081608,13.34184414,1,1,Europe/Rome,,,0
819,819,FANTE - PISCINA COMUNALE,,38.1489581767,13.34297186,1,1,Europe/Rome,,,0
810,810,FALSOMIELE - VILLA ALBANESE,,38.08117261,13.37418213,1,1,Europe/Rome,,,0
812,812,FALSOMIELE 1,,38.07564167,13.34978833,1,1,Europe/Rome,,,0
816,816,FANTE - C.T.O.,,38.15207013,13.34105922,1,1,Europe/Rome,,,0
817,817,FANTE - INAIL,,38.15031626,13.3422537333,1,1,Europe/Rome,,,0
1622,1622,RE RUGGERO,,38.10914684,13.35374638,1,1,Europe/Rome,,,0
1993,1993,STRASBURGO - BRIUCCIA,,38.15128549,13.3317119,1,1,Europe/Rome,,,0
1490,1490,PIAZZA NOCE,,38.12167979,13.3336097,1,1,Europe/Rome,,,0
1491,1491,PIAZZA PAGLIARELLI,,38.09046822,13.33144044,1,1,Europe/Rome,,,0
1492,1492,PIAZZA PAPA GIOVANNI PAOLO II,,38.15242798,13.33773494,1,1,Europe/Rome,,,0
1494,1494,PIAZZA PRETORIA,,38.11470241,13.36204514,1,1,Europe/Rome,,,0
1496,1496,PIAZZA S. CRISTINA - TINDARI,,38.12932647,13.29838961,1,1,Europe/Rome,,,0
1497,1497,PIAZZA S. LORENZO,,38.16125908,13.32568927,1,1,Europe/Rome,,,0
1499,1499,PIAZZA SAN FRANCESCO DI PAOLA,,38.12124721,13.35317373,1,1,Europe/Rome,,,0
423,423,CHIAVELLI - VITALE,,38.08750192,13.37017626,1,1,Europe/Rome,,,0
1994,1994,STRASBURGO - BRIUCCIA,,38.15058833,13.332045,1,1,Europe/Rome,,,0
1700,1700,REGIONE SICILIANA - VILLA TASCA,,38.09983134,13.33165151,1,1,Europe/Rome,,,0
1701,1701,REGIONE SICILIANA - VILLAGRAZIA,,38.08647233,13.34985224,1,1,Europe/Rome,,,0
1702,1702,REGIONE SICILIANA - VILLAGRAZIA,,38.08703033,13.34962067,1,1,Europe/Rome,,,0
1704,1704,REGIONE SICILIANA,,38.15291513,13.32080378,1,1,Europe/Rome,,,0
1705,1705,RESTIVO - DELLE MADONIE,,38.14855432,13.33338171,1,1,Europe/Rome,,,0
1706,1706,RESTIVO - DELLE MADONIE,,38.148336,13.33340988,1,1,Europe/Rome,,,0
1707,1707,RESTIVO - EMILIA,,38.14488295,13.33564147,1,1,Europe/Rome,,,0
1708,1708,RESTIVO - EMILIA,,38.14499388,13.33548232,1,1,Europe/Rome,,,0
1709,1709,RESTIVO - LAZIO,,38.14287264,13.33685115,1,1,Europe/Rome,,,0
1996,1996,STRASBURGO - DANIMARCA,,38.15344833,13.32969,1,1,Europe/Rome,,,0
1390,1390,PARLAVECCHIO - S. ORSOLA,,38.10157833,13.36117,1,1,Europe/Rome,,,0
1128,1128,MATTEI - TERSICORE,,38.1935798,13.32216354,1,1,Europe/Rome,,,0
1129,1129,MATTEI,,38.191475,13.32248,1,1,Europe/Rome,,,0
1120,1120,MATER DOLOROSA - CAMARINA,,38.17523,13.33457,1,1,Europe/Rome,,,0
1121,1121,MATER DOLOROSA - CAMARINA,,38.17517667,13.33432667,1,1,Europe/Rome,,,0
1122,1122,MATER DOLOROSA - MERCADANTE,,38.17376667,13.33044833,1,1,Europe/Rome,,,0
1123,1123,MATER DOLOROSA - PETROSINO,,38.17346833,13.32976,1,1,Europe/Rome,,,0
1124,1124,MATTEI - AFRODITE,,38.19373884,13.3219488,1,1,Europe/Rome,,,0
1125,1125,MATTEI - CALLIOPE,,38.19217679,13.32253888,1,1,Europe/Rome,,,0
1126,1126,MATTEI - COLLOTTI,,38.19537254,13.32106903,1,1,Europe/Rome,,,0
1127,1127,MATTEI - GIUGNONE,,38.19489167,13.32152,1,1,Europe/Rome,,,0
524,524,CRISTOFORO COLOMBO - ABATE PALMERIO,,38.189735,13.354655,1,1,Europe/Rome,,,0
525,525,CRISTOFORO COLOMBO - BELVEDERE MARE,,38.16924,13.36677333,1,1,Europe/Rome,,,0
526,526,CRISTOFORO COLOMBO - BELVEDERE,,38.16847667,13.366435,1,1,Europe/Rome,,,0
527,527,CRISTOFORO COLOMBO - BELVEDERE,,38.16830833,13.36646,1,1,Europe/Rome,,,0
1018,1018,LIBERO GRASSI,,38.11394167,13.33240333,1,1,Europe/Rome,,,0
1019,1019,LIBERO GRASSI - DEGLI EMIRI,,38.11456419,13.33233431,1,1,Europe/Rome,,,0
522,522,CRISPI - SCINA',,38.12978,13.36071208,1,1,Europe/Rome,,,0
523,523,CRISTOFORO COLOMBO - ABATE PALMERIO,,38.18937833,13.35429167,1,1,Europe/Rome,,,0
1010,1010,LEVRIERE - ERMELLINO,,38.08615,13.36611667,1,1,Europe/Rome,,,0
1011,1011,LEVRIERE - BASSOTTO,,38.08271156,13.36459516,1,1,Europe/Rome,,,0
1012,1012,LEVRIERE - RUMORE,,38.08095845,13.36128385,1,1,Europe/Rome,,,0
1234,1234,NEBRODI - DELLE MADONIE,,38.14646667,13.331465,1,1,Europe/Rome,,,0
1237,1237,NEBRODI - SARDEGNA,,38.14596,13.33169333,1,1,Europe/Rome,,,0
1231,1231,NEBRODI - BELGIO,,38.14963667,13.32942667,1,1,Europe/Rome,,,0
1233,1233,NEBRODI - DE GASPERI,,38.14972833,13.329315,1,1,Europe/Rome,,,0
1238,1238,NENNI - ACC. A29 VALLE,,38.1523626,13.32271993,1,1,Europe/Rome,,,0
1239,1239,NENNI - CROCE ROSSA ITALIANA,,38.15478574,13.32038569,1,1,Europe/Rome,,,0
438,438,CIACULLI - GIBILROSSA,,38.07692462,13.40454206,1,1,Europe/Rome,,,0
439,439,CIACULLI - GIBILROSSA,,38.07698163,13.40451658,1,1,Europe/Rome,,,0
436,436,CIACULLI - GIARDINO DELLA MEMORIA,,38.08732459,13.39019358,1,1,Europe/Rome,,,0
437,437,CIACULLI - GIARDINO DELLA MEMORIA,,38.08735309,13.39026064,1,1,Europe/Rome,,,0
434,434,CIACULLI - DI STEFANO,,38.07773011,13.40304136,1,1,Europe/Rome,,,0
435,435,CIACULLI - DI STEFANO,,38.07790747,13.40285093,1,1,Europe/Rome,,,0
432,432,CIACULLI - CASSARO BONANNO,,38.07962167,13.40024333,1,1,Europe/Rome,,,0
433,433,CIACULLI - CROCE VERDE,,38.07008023,13.4166804,1,1,Europe/Rome,,,0
430,430,CIACULLI - CARRUBELLA,,38.08418533,13.39499474,1,1,Europe/Rome,,,0
431,431,CIACULLI - CASSARO BONANNO,,38.07975594,13.40002119,1,1,Europe/Rome,,,0
238,238,BRANCACCIO,,38.09681784,13.38245256,1,1,Europe/Rome,,,0
239,239,BRASA,,38.10787633,13.35385501,1,1,Europe/Rome,,,0
236,236,BRANCACCIO - S. CIRO,,38.09630833,13.382625,1,1,Europe/Rome,,,0
237,237,BRANCACCIO - S. CIRO,,38.09587833,13.38297333,1,1,Europe/Rome,,,0
230,230,BONANNO 6,,38.15491997,13.36642519,1,1,Europe/Rome,,,0
231,231,BONANNO 7,,38.1504453,13.36662635,1,1,Europe/Rome,,,0
232,232,BORREMANS - RUBENS,,38.13289449,13.3353672,1,1,Europe/Rome,,,0
233,233,BORREMANS - RUBENS,,38.13286667,13.33491333,1,1,Europe/Rome,,,0
2228,2228,IMERA - D'OSSUNA,,38.11514289,13.34952883,1,1,Europe/Rome,,,0
2229,2229,BERNINI - MARCHESANO,,38.13443333,13.32420667,1,1,Europe/Rome,,,0
2226,2226,CADORNA,,38.11023626,13.35603683,1,1,Europe/Rome,,,0
2224,2224,TUKORY - FILICIUZZA,,38.108335,13.35696,1,1,Europe/Rome,,,0
2225,2225,RE RUGGERO,,38.10844167,13.35464167,1,1,Europe/Rome,,,0
2222,2222,PIAZZA MARINA,,38.118135,13.36858333,1,1,Europe/Rome,,,0
2223,2223,TUKORY - ARCOLEO,,38.10876333,13.35852667,1,1,Europe/Rome,,,0
2220,2220,FONDO RAFFO,,38.18294544,13.30697099,1,1,Europe/Rome,,,0
2221,2221,FONDO RAFFO,,38.18287267,13.30695806,1,1,Europe/Rome,,,0
1,1,A. AMEDEO - COLONNA ROTTA,,38.113305,13.35223667,1,1,Europe/Rome,,,0
146,146,AUSONIA - POSTE,,38.15031982,13.33420896,1,1,Europe/Rome,,,0
147,147,AUTONOMIA SICILIANA - D'AMELIO,,38.14264519,13.35597181,1,1,Europe/Rome,,,0
145,145,AUSONIA - BRIUCCIA,,38.151445,13.33319,1,1,Europe/Rome,,,0
142,142,AURISPA - MERENDA,,38.12651069,13.34042653,1,1,Europe/Rome,,,0
140,140,AUGUSTA - PIAZZA S. PAOLO,,38.1300469,13.29225674,1,1,Europe/Rome,,,0
141,141,AURISPA - MERENDA,,38.12637282,13.34008971,1,1,Europe/Rome,,,0
149,149,AUTONOMIA SICILIANA - FERRI,,38.1417413,13.35382442,1,1,Europe/Rome,,,0
2088,2088,UGHETTI - MADONIA,,38.10018,13.35625961,1,1,Europe/Rome,,,0
2089,2089,UGHETTI - TRICOMI,,38.10166171,13.35591093,1,1,Europe/Rome,,,0
2082,2082,UDITORE - LEONARDO DA VINCI,,38.12873142,13.32683242,1,1,Europe/Rome,,,0
2083,2083,UDITORE - PIAZZA ALFONSO DE' LIGUORI,,38.13331135,13.32248056,1,1,Europe/Rome,,,0
2080,2080,UDITORE - CIMABUE,,38.1299992,13.32560728,1,1,Europe/Rome,,,0
2081,2081,UDITORE - LEONARDO DA VINCI,,38.12921488,13.32646182,1,1,Europe/Rome,,,0
2086,2086,UDITORE - TIEPOLO,,38.13367998,13.32221299,1,1,Europe/Rome,,,0
2084,2084,UDITORE - SERIO,,38.13219259,13.32363457,1,1,Europe/Rome,,,0
2085,2085,UDITORE - SERIO,,38.13222802,13.32349973,1,1,Europe/Rome,,,0
1833,1833,S. M. DI GESU' - TRABIA,,38.08686543,13.3761777,1,1,Europe/Rome,,,0
1830,1830,S. M. DI GESU' - REGIONE SICILIANA,,38.08938478,13.37503646,1,1,Europe/Rome,,,0
1837,1837,S. M. DI GESU' - VILLA ALHATES,,38.09531464,13.37102458,1,1,Europe/Rome,,,0
1835,1835,S. M. DI GESU' - VERDONE,,38.08571803,13.37678924,1,1,Europe/Rome,,,0
2154,2154,VILLAGRAZIA - OS1,,38.09704657,13.36666256,1,1,Europe/Rome,,,0
2155,2155,VILLAGRAZIA - OSPEDALE GUADAGNA,,38.09596688,13.36503982,1,1,Europe/Rome,,,0
2157,2157,VILLAGRAZIA - PONTE ROTTO,,38.09182167,13.356765,1,1,Europe/Rome,,,0
2151,2151,VILLAGRAZIA - ERACLEA MINOA,,38.09204333,13.3576,1,1,Europe/Rome,,,0
2152,2152,VILLAGRAZIA - MARCHESE,,38.08463184,13.33721861,1,1,Europe/Rome,,,0
933,933,LA MALFA - NUOVA,,38.15720342,13.31825072,1,1,Europe/Rome,,,0
932,932,LA MALFA - FIGC,,38.16421667,13.31145667,1,1,Europe/Rome,,,0
931,931,LA MALFA - FIGC,,38.16401863,13.312012,1,1,Europe/Rome,,,0
930,930,LA MALFA - CNR,,38.16497167,13.30979833,1,1,Europe/Rome,,,0
2158,2158,VILLAGRAZIA - S. FILIPPO,,38.09319667,13.35941,1,1,Europe/Rome,,,0
2159,2159,VILLAGRAZIA - SAN FRANCESCO DI SALES,,38.08667648,13.34543422,1,1,Europe/Rome,,,0
935,935,LA MALFA - RIPARTIZIONE ANNONA,,38.158585,13.317085,1,1,Europe/Rome,,,0
1951,1951,SIMONE GULI' - CANTIERE NAVALE,,38.13873161,13.36772472,1,1,Europe/Rome,,,0
1950,1950,SIMONE GULI' - CALCEDONIO,,38.14136329,13.36714938,1,1,Europe/Rome,,,0
1953,1953,SOLARINO,,38.10108267,13.34894077,1,1,Europe/Rome,,,0
1952,1952,SIMONE GULI',,38.13969252,13.36778104,1,1,Europe/Rome,,,0
829,829,FONTANA DEL DRAGO 2,,38.08906833,13.29990833,1,1,Europe/Rome,,,0
828,828,FONTANA DEL DRAGO 1,,38.08734667,13.29758833,1,1,Europe/Rome,,,0
825,825,FINOCCHIARO APRILE - RE FEDERICO,,38.11855,13.34781167,1,1,Europe/Rome,,,0
824,824,FINOCCHIARO APRILE - AMATO,,38.11809833,13.34482833,1,1,Europe/Rome,,,0
827,827,FONTANA DEL DRAGO - CANNOLICCHIO,,38.08602833,13.29592667,1,1,Europe/Rome,,,0
826,826,FINOCCHIARO APRILE - TRIBUNALE,,38.11882477,13.35015759,1,1,Europe/Rome,,,0
820,820,FANTE - PISCINA COMUNALE,,38.14886307,13.34293074,1,1,Europe/Rome,,,0
1483,1483,PIAZZA MOLARA,,38.08155475,13.30969513,1,1,Europe/Rome,,,0
1482,1482,PIAZZA MOLARA,,38.08163181,13.30971658,1,1,Europe/Rome,,,0
9016,9016,SAN SERGIO,,38.0972283,13.3996228,1,1,Europe/Rome,,,0
1480,1480,PIAZZA MICCA,,38.1093740933,13.3084819767,1,1,Europe/Rome,,,0
1487,1487,PIAZZA NISCEMI,,38.16374878,13.33244364,1,1,Europe/Rome,,,0
1486,1486,PIAZZA MORDINI,,38.12994568,13.35176341,1,1,,,70000,0
1485,1485,PIAZZA MONDELLO,,38.20749444,13.32689077,1,1,Europe/Rome,,,0
1484,1484,PIAZZA MONDELLO,,38.20793704,13.32690015,1,1,Europe/Rome,,,0
1489,1489,PIAZZA NOCE,,38.12169772,13.33373174,1,1,Europe/Rome,,,0
1488,1488,PIAZZA NISCEMI,,38.16350566,13.3325036,1,1,Europe/Rome,,,0
9018,9018,BIONE,,38.10119878,13.391264965,1,1,Europe/Rome,,,0
9019,9019,DI VITTORIO,,38.095237065,13.409280205,1,1,Europe/Rome,,,0
1713,1713,RESURREZIONE - DE CERVANTES,,38.166265,13.32059667,1,1,Europe/Rome,,,0
1712,1712,RESTIVO - UMBRIA,,38.14353607,13.33636299,1,1,Europe/Rome,,,0
1711,1711,RESTIVO - SARDEGNA,,38.14642493,13.33456725,1,1,Europe/Rome,,,0
1710,1710,RESTIVO - SARDEGNA,,38.14674661,13.33446533,1,1,Europe/Rome,,,0
1717,1717,RESURREZIONE - FLORIO,,38.16887,13.32256833,1,1,Europe/Rome,,,0
1716,1716,RESURREZIONE - DUCA DEGLI ABRUZZI,,38.17055833,13.32719333,1,1,Europe/Rome,,,0
1715,1715,RESURREZIONE - DUCA DEGLI ABRUZZI,,38.17037167,13.326565,1,1,Europe/Rome,,,0
1714,1714,RESURREZIONE - DE CERVANTES,,38.16604167,13.320475,1,1,Europe/Rome,,,0
1719,1719,RESURREZIONE - PIAZZA MARIA CONSOLATRICE,,38.16997833,13.32485833,1,1,Europe/Rome,,,0
1718,1718,RESURREZIONE - FLORIO,,38.168595,13.32206833,1,1,Europe/Rome,,,0
798,798,FALCONARA 4,,38.11665441,13.28871891,1,1,Europe/Rome,,,0
1271,1271,OLIMPO,,38.18908263,13.31236573,1,1,Europe/Rome,,,0
1139,1139,MESSINA MARINE - BANDITA,,38.09752,13.41713667,1,1,Europe/Rome,,,0
1138,1138,MESSINA MARINE - BANDITA,,38.097535,13.41647333,1,1,Europe/Rome,,,0
1133,1133,MESSINA MARINE - ALAGNA,,38.10438167,13.39075333,1,1,Europe/Rome,,,0
1274,1274,OLIO DI LINO 1,,38.08498789,13.32635571,1,1,Europe/Rome,,,0
1131,1131,MESSINA MARINE - ACQUA DEI CORSARI,,38.09671667,13.42687833,1,1,Europe/Rome,,,0
1130,1130,MERCURIO,,38.20467294,13.31804651,1,1,Europe/Rome,,,0
1137,1137,MESSINA MARINE - AMMIRAGLIO CRISTODULO,,38.09682333,13.42538333,1,1,Europe/Rome,,,0
1136,1136,MESSINA MARINE - ALBRICCI,,38.10237,13.39612333,1,1,Europe/Rome,,,0
1135,1135,MESSINA MARINE - ALBRICCI,,38.102385,13.395825,1,1,Europe/Rome,,,0
1134,1134,MESSINA MARINE - ALAGNA,,38.10435167,13.39095167,1,1,Europe/Rome,,,0
1276,1276,OLIO DI LINO 11,,38.08123067,13.32070559,1,1,Europe/Rome,,,0
519,519,CRISPI - PORTO,,38.12763846,13.36231068,1,1,Europe/Rome,,,0
518,518,CRISPI - PIAZZA 13 VITTIME,,38.12491344,13.36387172,1,1,Europe/Rome,,,0
1009,1009,LEVRIERE - BASSOTTO,,38.084395,13.365535,1,1,Europe/Rome,,,0
1008,1008,LEVRIERE - ANTILOPE,,38.08016544,13.35903333,1,1,Europe/Rome,,,0
1007,1007,LEONI - FAVORITA,,38.1462222767,13.3446296533,1,1,Europe/Rome,,,0
1006,1006,LEONI - FAVORITA,,38.1460145767,13.3449760367,1,1,Europe/Rome,,,0
1005,1005,LEONI - DON BOSCO,,38.14536628,13.34562476,1,1,Europe/Rome,,,0
1004,1004,LEONARDO DA VINCI - UDITORE,,38.12775827,13.32638464,1,1,Europe/Rome,,,0
1003,1003,LEONARDO DA VINCI - TOMASI DI LAMPEDUSA,,38.12657083,13.31134737,1,1,Europe/Rome,,,0
1002,1002,LEONARDO DA VINCI - SILVESTRI,,38.12702333,13.32099833,1,1,Europe/Rome,,,0
517,517,PIAZZA CRISPI,,38.13047884,13.35265967,1,1,Europe/Rome,,,0
516,516,CRISPI - CAPITANERIA,,38.12486807,13.36365044,1,1,Europe/Rome,,,0
620,620,DEI MILLE - CAMPO,,38.10108866,13.38247418,1,1,Europe/Rome,,,0
627,627,DEI MILLE - CILUFFO,,38.09359912,13.40623008,1,1,Europe/Rome,,,0
626,626,DEI MILLE - CILUFFO,,38.09373389,13.40561159,1,1,Europe/Rome,,,0
625,625,DEI MILLE - CAVALLOTTI,,38.09685238,13.39615881,1,1,Europe/Rome,,,0
624,624,DEI MILLE - CAVALLOTTI,,38.09712978,13.39527557,1,1,Europe/Rome,,,0
629,629,DEI MILLE - CORSELLI,,38.09630145,13.39849651,1,1,Europe/Rome,,,0
2,2,A. AMEDEO - LASCARIS,,38.11764306,13.35087776,1,1,Europe/Rome,,,0
11,11,ACC. A29 MONTE 1,,38.18267441,13.29064198,1,1,Europe/Rome,,,0
10,10,ACC. A29 MONTE - WELLS,,38.17868533,13.29322495,1,1,Europe/Rome,,,0
13,13,ACC. A29 MONTE 3,,38.17653679,13.2946948,1,1,Europe/Rome,,,0
15,15,ACC. A29 VALLE - COSTANTINO,,38.17544451,13.29613572,1,1,Europe/Rome,,,0
14,14,ACC. A29 MONTE 4,,38.16615734,13.30447922,1,1,Europe/Rome,,,0
17,17,ACC. A29 VALLE 1,,38.17104174,13.29995519,1,1,Europe/Rome,,,0
16,16,ACC. A29 VALLE - POSTE,,38.16714692,13.3051694,1,1,Europe/Rome,,,0
19,19,ACC. A29 VALLE 3,,38.18180992,13.29187637,1,1,Europe/Rome,,,0
18,18,ACC. A29 VALLE 2,,38.17995876,13.29307532,1,1,Europe/Rome,,,0
928,928,LA MALFA - AST,,38.15955833,13.31626833,1,1,Europe/Rome,,,0
209,209,BIANCHINI,,38.17982989,13.30983996,1,1,Europe/Rome,,,0
685,685,DEL FANTE - DEGLI ALPINI,,38.05424714,13.3113424067,1,1,Europe/Rome,,,0
684,684,DEL FANTE - CASTELNUOVO,,38.15923438,13.33562228,1,1,Europe/Rome,,,0
686,686,DEL FANTE - DEGLI ALPINI,,38.05429229,13.31130177,1,1,Europe/Rome,,,0
2231,2231,BERNINI - CIMABUE,,38.13214591,13.32679018,1,1,Europe/Rome,,,0
2230,2230,BERNINI - MINEO,,38.13317333,13.32524333,1,1,Europe/Rome,,,0
2233,2233,PARLAVECCHIO - METRO',,38.10289587,13.36217559,1,1,Europe/Rome,,,0
2232,2232,VILLA FILIPPINA,,38.12055578,13.35282637,1,1,Europe/Rome,,,0
2234,2234,CAVOUR - PREFETTURA,,38.1225196,13.36273849,1,1,Europe/Rome,,,0
2237,2237,FALCANDO,,38.12674622,13.33674546,1,1,Europe/Rome,,,0
680,680,DEI QUARTIERI - FLORIO,,38.16568,13.33056,1,1,Europe/Rome,,,0
683,683,DEL FANTE - CASSARA',,38.15295833,13.34039,1,1,,,60000,0
682,682,DEL FANTE - CASE ROCCA,,38.15659988,13.33792537,1,1,Europe/Rome,,,0
228,228,BONANNO 4,,38.16000071,13.34985048,1,1,Europe/Rome,,,0
2094,2094,BONIFATO,,38.15341409,13.32639609,1,1,Europe/Rome,,,0
2090,2090,UGHETTI - TRICOMI,,38.10102829,13.35597165,1,1,Europe/Rome,,,0
2092,2092,USIGNOLO,,38.08893268,13.35314935,1,1,Europe/Rome,,,0
225,225,BONANNO 1,,38.14913543,13.35993826,1,1,Europe/Rome,,,0
224,224,BONANNO - RAMPOLLA,,38.14990111,13.3626017,1,1,Europe/Rome,,,0
1829,1829,S. M. DI GESU' - MIRAGLIA,,38.09259159,13.37276533,1,1,Europe/Rome,,,0
1824,1824,S. M. DI GESU' - FALSOMIELE,,38.08451167,13.37720167,1,1,Europe/Rome,,,0
1827,1827,S. M. DI GESU' - GUADAGNA,,38.09770831,13.37013468,1,1,Europe/Rome,,,0
1820,1820,S. LORENZO - VILLA ADRIANA,,38.16398952,13.32043964,1,1,Europe/Rome,,,0
2147,2147,VILLAGRAZIA - GIRGENTI,,38.0870227,13.34222227,1,1,Europe/Rome,,,0
929,929,LA MALFA - CNR,,38.16542103,13.30886941,1,1,Europe/Rome,,,0
2145,2145,VILLAGRAZIA - FOLAGA,,38.09112333,13.35527167,1,1,Europe/Rome,,,0
2144,2144,VILLAGRAZIA - ETNA,,38.08653293,13.33886817,1,1,Europe/Rome,,,0
2143,2143,VILLAGRAZIA - ETNA,,38.08664587,13.33892047,1,1,Europe/Rome,,,0
2142,2142,VILLAGRAZIA - DELL'USIGNOLO,,38.0897238,13.35308388,1,1,Europe/Rome,,,0
2141,2141,VILLAGRAZIA - DELL'USIGNOLO,,38.08958667,13.352715,1,1,Europe/Rome,,,0
2140,2140,VILLAGRAZIA - DELLA VISITAZIONE,,38.08688833,13.34355167,1,1,Europe/Rome,,,0
921,921,LA FRANCA - DURANTE,,38.10370872,13.3636030467,1,1,Europe/Rome,,,0
924,924,LA MALFA,,38.16073355,13.31548281,1,1,Europe/Rome,,,0
925,925,LA MALFA - ACC. A29 VALLE,,38.16603526,13.30752867,1,1,Europe/Rome,,,0
926,926,LA MALFA - ACC. A29 VALLE,,38.16626333,13.30688333,1,1,Europe/Rome,,,0
2148,2148,VILLAGRAZIA - GIRGENTI,,38.08698998,13.34211499,1,1,Europe/Rome,,,0
1920,1920,SCIUTI - DELLE MAGNOLIE,,38.14065343,13.33828077,1,1,Europe/Rome,,,0
1921,1921,SCIUTI - DELLE MAGNOLIE,,38.13995517,13.33861738,1,1,Europe/Rome,,,0
1922,1922,SCIUTI - GIUSTI,,38.13648062,13.34080741,1,1,Europe/Rome,,,0
1923,1923,SCIUTI - GIUSTI,,38.13609177,13.340955,1,1,Europe/Rome,,,0
1924,1924,SCIUTI - LAZIO,,38.14156502,13.33760099,1,1,Europe/Rome,,,0
1925,1925,SCIUTI - NOTARBARTOLO,,38.13283622,13.3430055,1,1,Europe/Rome,,,0
1926,1926,SCIUTI - NOTARBARTOLO,,38.13287827,13.34306717,1,1,Europe/Rome,,,0
1927,1927,SCIUTI - PRINCIPE DI PATERNO',,38.13876008,13.33944619,1,1,Europe/Rome,,,0
1928,1928,SCIUTI - PRINCIPE DI PATERNO',,38.13829297,13.33964987,1,1,Europe/Rome,,,0
1929,1929,SCIUTI - RAPISARDI,,38.13409138,13.34228531,1,1,Europe/Rome,,,0
832,832,FONTANA DEL DRAGO 2,,38.08941,13.30024833,1,1,Europe/Rome,,,0
833,833,FONTANA DEL DRAGO 1,,38.08692833,13.29703167,1,1,Europe/Rome,,,0
830,830,FONTANA DEL DRAGO 3,,38.09115167,13.30244333,1,1,Europe/Rome,,,0
831,831,FONTANA DEL DRAGO 3,,38.09125833,13.30250667,1,1,Europe/Rome,,,0
836,836,FORO UMBERTO I - PADRE MESSINA,,38.11342667,13.37778833,1,1,Europe/Rome,,,0
837,837,FORO UMBERTO I - PIAZZA KALSA,,38.1165795,13.37405741,1,1,Europe/Rome,,,0
835,835,FORO UMBERTO I - LINCOLN,,38.11555602,13.37600335,1,1,Europe/Rome,,,0
838,838,FORO UMBERTO I - PORTA FELICE,,38.11785619,13.37272838,1,1,Europe/Rome,,,0
839,839,FORO UMBERTO I - PORTA FELICE,,38.11788147,13.37307738,1,1,Europe/Rome,,,0
3,3,A. AMEDEO - MERCATO DELLE PULCI,,38.11599707,13.35099846,1,1,Europe/Rome,,,0
9007,9007,SETTEMBRINI - DI BLASI,,38.122923585,13.3292847,1,1,Europe/Rome,,,0
9006,9006,SCOBAR,,38.12704748,13.32975998,1,1,Europe/Rome,,,0
9005,9005,EINSTEIN,,38.12743893,13.329383215,1,1,Europe/Rome,,,0
9004,9004,DI GIORGIO - DI BLASI,,38.123950795,13.328998855,1,1,Europe/Rome,,,0
9003,9003,PERPIGNANO OVEST,,38.120772295,13.328634225,1,1,Europe/Rome,,,0
9002,9002,LAUDICINA,,38.09338286,13.410471845,1,1,Europe/Rome,,,0
9001,9001,LAUDICINA,,38.09372575,13.410766305,1,1,Europe/Rome,,,0
9009,9009,PITRE' EST,,38.11082225,13.330015905,1,1,Europe/Rome,,,0
9008,9008,PORTELLO - ZISA,,38.1135755,13.32964895,1,1,Europe/Rome,,,0
785,785,FALCONARA - FRANCESCO DA PICCIANO,,38.11545586,13.29089158,1,1,Europe/Rome,,,0
786,786,FALCONARA - FRANCESCO DA PICCIANO,,38.11553311,13.29093195,1,1,Europe/Rome,,,0
780,780,FALCONARA - AI VILLINI A S. ISIDORO,,38.11839445,13.29752471,1,1,Europe/Rome,,,0
781,781,FALCONARA - ANDREA DA BURGIO,,38.11739616,13.29406857,1,1,Europe/Rome,,,0
1728,1728,RESUTTANA - SACRA FAMIGLIA,,38.15206766,13.33651695,1,1,Europe/Rome,,,0
1729,1729,RESUTTANA - SACRA FAMIGLIA,,38.15232041,13.33600759,1,1,Europe/Rome,,,0
1726,1726,RESUTTANA - BARTOLINO,,38.15516147,13.33233029,1,1,Europe/Rome,,,0
1727,1727,RESUTTANA - BRIUCCIA,,38.15314722,13.33500981,1,1,Europe/Rome,,,0
1724,1724,RESUTTANA - ALDISIO,,38.15599,13.331915,1,1,Europe/Rome,,,0
1725,1725,RESUTTANA - BARTOLINO,,38.15604507,13.33195617,1,1,Europe/Rome,,,0
1722,1722,RESURREZIONE - VILLA ADRIANA,,38.16488,13.31951167,1,1,Europe/Rome,,,0
1723,1723,RESUTTANA,,38.1514177379,13.3377020271,1,1,Europe/Rome,,,0
1720,1720,RESURREZIONE - PIAZZA MARIA CONSOLATRICE,,38.169955,13.32446833,1,1,Europe/Rome,,,0
1721,1721,RESURREZIONE - VILLA ADRIANA,,38.164687425,13.31932655,1,1,Europe/Rome,,,0
60,60,ALTOFONTE - CIRAULO 1 MONTE,,38.06879667,13.32732333,1,1,Europe/Rome,,,0
61,61,ALTOFONTE - CIRAULO 1 VALLE,,38.068895,13.32728833,1,1,Europe/Rome,,,0
63,63,ALTOFONTE - CIRAULO 2 VALLE,,38.06728865,13.32637981,1,1,Europe/Rome,,,0
64,64,ALTOFONTE - MOLLO,,38.07092833,13.32770667,1,1,Europe/Rome,,,0
65,65,ALTOFONTE - MOLLO,,38.07105155,13.32767665,1,1,Europe/Rome,,,0
66,66,ALTOFONTE - MONTAGNA,,38.07220234,13.32838744,1,1,Europe/Rome,,,0
67,67,ALTOFONTE - MONTAGNA,,38.07226041,13.32832307,1,1,Europe/Rome,,,0
68,68,ALTOFONTE - MUSSO,,38.06478945,13.32472756,1,1,Europe/Rome,,,0
69,69,ALTOFONTE - MUSSO,,38.06467167,13.32471667,1,1,Europe/Rome,,,0
1589,1589,PONTE AMMIRAGLIO - BUONRIPOSO,,38.10419764,13.37670609,1,1,Europe/Rome,,,0
406,406,CENTURIPE - MOZIA,,38.13211966,13.29776086,1,1,Europe/Rome,,,0
1582,1582,POLITEAMA - TURATI,,38.12550029,13.35649431,1,1,,,80000,0
1583,1583,POLLACI,,38.10355258,13.3296499,1,1,Europe/Rome,,,0
1580,1580,POLITEAMA,,38.12465534,13.35558671,1,1,Europe/Rome,,,0
1581,1581,POLITEAMA - AMARI,,38.12501366,13.35743845,1,1,,,80000,0
1586,1586,POMARA - FIGURELLA,,38.08257167,13.43423667,1,1,Europe/Rome,,,0
1587,1587,POMARA - NOVELLI,,38.08355936,13.43394041,1,1,Europe/Rome,,,0
1584,1584,POMARA - BELVEDERE,,38.08504,13.43355,1,1,Europe/Rome,,,0
1585,1585,POMARA - BELVEDERE,,38.08551833,13.43346833,1,1,Europe/Rome,,,0
1038,1038,LIBERTA' - UGDULENA,,38.13982167,13.345845,1,1,Europe/Rome,,,0
1039,1039,LIBERTA' - UGDULENA,,38.140235,13.34558333,1,1,Europe/Rome,,,0
1032,1032,LIBERTA' - MATTEOTTI,,38.14161538,13.34469795,1,1,Europe/Rome,,,0
1033,1033,LIBERTA' - MATTEOTTI,,38.14192,13.34443,1,1,Europe/Rome,,,0
1030,1030,LIBERTA' - LAZIO,,38.14437,13.34291833,1,1,Europe/Rome,,,0
505,505,CORPO DI GUARDIA,,38.07950997,13.30413088,1,1,Europe/Rome,,,0
1036,1036,LIBERTA' - QUINTINO SELLA,,38.12659667,13.35443333,1,1,Europe/Rome,,,0
1037,1037,LIBERTA' - QUINTINO SELLA,,38.1266489,13.35433245,1,1,Europe/Rome,,,0
1034,1034,LIBERTA' - NOTARBARTOLO,,38.13430167,13.34946,1,1,Europe/Rome,,,0
1035,1035,LIBERTA' - NOTARBARTOLO,,38.13321056,13.35007846,1,1,Europe/Rome,,,0
1212,1212,MONTECARLO,,38.15513139,13.32463471,1,1,Europe/Rome,,,0
1213,1213,MONTEPELLEGRINO - AMMIRAGLIO RIZZO,,38.14107144,13.35800173,1,1,Europe/Rome,,,0
632,632,DEI MILLE - DEL CARMELO,,38.09577289,13.40061484,1,1,Europe/Rome,,,0
633,633,DEI MILLE - D'ORFEO,,38.09924817,13.38859823,1,1,Europe/Rome,,,0
1216,1216,MONTEPELLEGRINO - LORIA,,38.13948051,13.35804194,1,1,Europe/Rome,,,0
635,635,DEI MILLE - FONDO VITALE,,38.09315723,13.40772299,1,1,Europe/Rome,,,0
30000,,PARCHEGGIO BASILE,,38.0978175,13.345395835,1,1,Europe/Rome,,,1
1215,1215,MONTEPELLEGRINO - LORIA,,38.13945228,13.35828871,1,1,Europe/Rome,,,0
638,638,DEI MILLE - INGRASSIA,,38.10854,13.37101333,1,1,Europe/Rome,,,0
639,639,DEI MILLE - LAUDICINA,,38.09230645,13.41040716,1,1,Europe/Rome,,,0
1218,1218,MONTEPELLEGRINO - MERCATO,,38.13646834,13.35859485,1,1,Europe/Rome,,,0
927,927,LA MALFA - AST,,38.15937889,13.31651831,1,1,Europe/Rome,,,0
782,782,FALCONARA - ANDREA DA BURGIO,,38.11732335,13.29402536,1,1,Europe/Rome,,,0
1104,1104,MARGHERITA DI SAVOIA - MATER DEI,,38.1956666,13.33193198,1,1,Europe/Rome,,,0
1451,1451,PIAZZA ACQUASANTA MONTE,,38.14368268,13.36743236,1,1,Europe/Rome,,,0
1452,1452,PIAZZA ACQUASANTA VALLE,,38.1437099,13.36756203,1,1,Europe/Rome,,,0
1101,1101,MARGHERITA DI SAVOIA - DELLE PALME,,38.19584577,13.33204329,1,1,Europe/Rome,,,0
1458,1458,PIAZZA ARMERINA - MOZIA,,38.13007481,13.29713237,1,1,Europe/Rome,,,0
1459,1459,PIAZZA ARMERINA - PIAZZA S. PAOLO,,38.12975046,13.29354554,1,1,Europe/Rome,,,0
1109,1109,MARGHERITA DI SAVOIA - PIAZZA CABOTO,,38.1930453,13.33246842,1,1,Europe/Rome,,,0
789,789,FALCONARA - PIAZZA BAIDA,,38.11466021,13.29462111,1,1,Europe/Rome,,,0
681,681,DEI QUARTIERI - S. LORENZO,,38.16372,13.33059333,1,1,Europe/Rome,,,0
959,959,LASCARIS - IMERA,,38.11714321,13.34934489,1,1,Europe/Rome,,,0
216,216,BOLOGNI,,38.11203904,13.30818731,1,1,Europe/Rome,,,0
214,214,BLANDINO,,38.0578948167,13.3152299667,1,1,Europe/Rome,,,0
215,215,BLANDINO,,38.0579492,13.3152701,1,1,Europe/Rome,,,0
213,213,BIXIO - AURISPA,,38.12662434,13.3422325,1,1,Europe/Rome,,,0
210,210,BIANCHINI - D'ALVISE,,38.18100427,13.31055343,1,1,Europe/Rome,,,0
211,211,BIVIO PIANA,,38.06296172,13.32257912,1,1,Europe/Rome,,,0
218,218,BONANNO - CASTELLO UTVEGGIO,,38.15620805,13.35743515,1,1,Europe/Rome,,,0
219,219,BONANNO - CASTELLO UTVEGGIO,,38.15632226,13.35751843,1,1,Europe/Rome,,,0
4,4,A. AMEDEO - TRIBUNALE,,38.11776833,13.35115667,1,1,Europe/Rome,,,0
1856,1856,S.S. 113 - BELVEDERE,,38.20104319,13.26754854,1,1,Europe/Rome,,,0
2173,2173,VILLAGRAZIA 9,,38.0755427,13.33160877,1,1,Europe/Rome,,,0
2170,2170,VILLAGRAZIA - CAPRICORNO,,38.09482597,13.36246759,1,1,Europe/Rome,,,0
2171,2171,VILLAGRAZIA - CAPRICORNO,,38.09470776,13.36240992,1,1,Europe/Rome,,,0
918,918,KING - SCALA VECCHIA,,38.14803167,13.35664,1,1,Europe/Rome,,,0
2174,2174,VITTORIO EMANUELE - AMARI,,38.07575833,13.44867,1,1,Europe/Rome,,,0
2175,2175,VITTORIO EMANUELE - ARENA,,38.07791697,13.44173625,1,1,Europe/Rome,,,0
914,914,INDIPENDENZA - PISANI,,38.11063779,13.35001338,1,1,Europe/Rome,,,0
917,917,ISIDORO CARINI,,38.12829525,13.35627652,1,1,Europe/Rome,,,0
916,916,INGRESSO FAVORITA,,38.17331568,13.33718484,1,1,Europe/Rome,,,0
911,911,INDIPENDENZA,,38.11131667,13.35062,1,1,Europe/Rome,,,0
910,910,IMPERATORE FEDERICO,,38.14648142,13.35114143,1,1,Europe/Rome,,,0
913,913,INDIPENDENZA - PISANI,,38.11023167,13.35031167,1,1,Europe/Rome,,,0
912,912,INDIPENDENZA - PALAZZO REALE,,38.11078833,13.35190833,1,1,Europe/Rome,,,0
1933,1933,SERRADIFALCO - AURISPA,,38.12646167,13.338195,1,1,Europe/Rome,,,0
1932,1932,SERRADIFALCO - AURISPA,,38.12540667,13.33857167,1,1,Europe/Rome,,,0
1931,1931,SENOCRATE DI AGRIGENTO,,38.18029592,13.31563776,1,1,Europe/Rome,,,0
1930,1930,SCIUTI - RAPISARDI,,38.1344642,13.34198119,1,1,Europe/Rome,,,0
1937,1937,SERRADIFALCO - CRISPI,,38.12406099,13.33963528,1,1,Europe/Rome,,,0
1934,1934,SERRADIFALCO - BERNABEI,,38.12752136,13.3377175,1,1,Europe/Rome,,,0
1939,1939,SERRADIFALCO - RAZZA,,38.12171988,13.34037423,1,1,Europe/Rome,,,0
847,847,GALATEA - PARCHEGGIO,,38.20085833,13.323435,1,1,Europe/Rome,,,0
846,846,GALATEA - PARCHEGGIO,,38.20091833,13.323385,1,1,Europe/Rome,,,0
845,845,GALATEA - CIANE,,38.19994667,13.32152333,1,1,Europe/Rome,,,0
844,844,GALATEA - CIANE,,38.20011667,13.32201667,1,1,Europe/Rome,,,0
842,842,FRANCIA - NEBRODI,,38.1561032767,13.3256361367,1,1,Europe/Rome,,,0
841,841,PARCHEGGIO FRANCIA,,38.15479634,13.32281436,1,1,Europe/Rome,,,0
840,840,FORO UMBERTO I - VILLA GIULIA,,38.1136527833,13.3772803667,1,1,Europe/Rome,,,0
848,848,GALATEA - SALINE,,38.198775,13.31928667,1,1,Europe/Rome,,,0
9032,9032,SPERONE,,38.0995616,13.3946046,1,1,Europe/Rome,,,0
9030,9030,SAN GIOVANNI DEI LEBBROSI,,38.102499,13.3800727,1,1,Europe/Rome,,,0
9031,9031,SPERONE,,38.098842545,13.39595866,1,1,Europe/Rome,,,0
9036,9036,TIRO A SEGNO,,38.10696563,13.37298556,1,1,Europe/Rome,,,0
9037,9037,XXVII MAGGIO,,38.09590174,13.40333215,1,1,Europe/Rome,,,0
9034,9034,STAZIONE CENTRALE,,38.11016261,13.3680267,1,1,Europe/Rome,,,0
9035,9035,TIRO A SEGNO,,38.106929795,13.372975865,1,1,Europe/Rome,,,0
9038,9038,XXVII MAGGIO,,38.096108,13.4028383,1,1,Europe/Rome,,,0
9039,9039,MODICA,,38.126503445,13.299032295,1,1,Europe/Rome,,,0
1739,1739,ROCCAZZO - DOGALI,,38.124629654,13.311530598,1,1,Europe/Rome,,,0
1731,1731,RESUTTANA - VILLA SOFIA,,38.15390167,13.33375667,1,1,Europe/Rome,,,0
1730,1730,RESUTTANA - VILLA SOFIA,,38.15420361,13.33337471,1,1,Europe/Rome,,,0
1733,1733,ROCCAZZO - AMAT,,38.12233286,13.30857396,1,1,Europe/Rome,,,0
1732,1732,ROCCAFORTE - DON BOSCO,,38.14319113,13.34662554,1,1,Europe/Rome,,,0
1735,1735,ROCCAZZO - CASA DEL SOLE,,38.120999484,13.306803168,1,1,Europe/Rome,,,0
1734,1734,ROCCAZZO - AMAT,,38.12236424,13.30875109,1,1,Europe/Rome,,,0
1736,1736,ROCCAZZO - CASA DEL SOLE,,38.12061268,13.30642862,1,1,Europe/Rome,,,0
732,732,DIOMEDE - MERCURIO,,38.20307,13.31686167,1,1,Europe/Rome,,,0
753,753,EMILY BALCH - VILLAGRAZIA,,38.08784667,13.345825,1,1,Europe/Rome,,,0
752,752,EMILY BALCH - VILLAGRAZIA,,38.08756333,13.34520833,1,1,Europe/Rome,,,0
756,756,EMILY BALCH 3,,38.08880973,13.3510682,1,1,Europe/Rome,,,0
754,754,EMILY BALCH 1,,38.08894167,13.34872667,1,1,Europe/Rome,,,0
1595,1595,PORTA FELICE,,38.11942195,13.3710815,1,1,Europe/Rome,,,0
1591,1591,PONTE DI MARE - S. ERASMO,,38.11149,13.37850833,1,1,Europe/Rome,,,0
1590,1590,PONTE DI MARE - S. ERASMO,,38.11168779,13.37839723,1,1,Europe/Rome,,,0
1593,1593,PONTE ORETO,,38.10310856,13.36957142,1,1,Europe/Rome,,,0
1025,1025,LIBERTA' - CROCI,,38.130655,13.35178333,1,1,Europe/Rome,,,0
1024,1024,LIBERTA' - ARIMONDI,,38.13569833,13.34846833,1,1,Europe/Rome,,,0
1027,1027,LIBERTA' - D'ANNUNZIO,,38.13893,13.34638667,1,1,Europe/Rome,,,0
1026,1026,LIBERTA' - CROCI,,38.12960699,13.35241199,1,1,Europe/Rome,,,0
1021,1021,LIBERO GRASSI - SICCHERIA,,38.11288167,13.33314,1,1,Europe/Rome,,,0
1020,1020,LIBERO GRASSI - LA TORRE,,38.11260791,13.33350509,1,1,Europe/Rome,,,0
1023,1023,LIBERTA' - ARIMONDI,,38.13617833,13.348245,1,1,Europe/Rome,,,0
1022,1022,LIBERTA' - ARCHIMEDE,,38.12854,13.35313833,1,1,Europe/Rome,,,0
1029,1029,LIBERTA' - DON BOSCO,,38.14326333,13.34355667,1,1,Europe/Rome,,,0
1028,1028,LIBERTA' - DON BOSCO,,38.143165,13.34369,1,1,Europe/Rome,,,0
500,500,COPPI - S. NICOLA,,38.17974217,13.31535403,1,1,Europe/Rome,,,0
605,605,DE GASPERI - AUSONIA,,38.1503101425,13.3360310125,1,1,Europe/Rome,,,0
604,604,DE GASPERI - AUSONIA,,38.15019008,13.33553821,1,1,Europe/Rome,,,0
607,607,DE GASPERI - STRASBURGO,,38.14940121,13.33359897,1,1,Europe/Rome,,,0
606,606,DE GASPERI - NEBRODI,,38.14842167,13.33115167,1,1,Europe/Rome,,,0
1209,1209,MONETA - ALOI,,38.08531164,13.35312143,1,1,Europe/Rome,,,0
600,600,D'AZEGLIO - LA MARMORA,,38.14336068,13.34518276,1,1,Europe/Rome,,,0
631,631,DEI MILLE - D'AOSTA,,38.10027595,13.38431708,1,1,Europe/Rome,,,0
1207,1207,MONDELLO - STESICORO,,38.204915,13.32290333,1,1,Europe/Rome,,,0
1201,1201,MOLARA - MIMOSA,,38.07956909,13.3122392,1,1,Europe/Rome,,,0
1200,1200,MOLARA - MIMOSA,,38.07972216,13.31225395,1,1,Europe/Rome,,,0
1203,1203,MOLARA - PIAZZA MOLARA,,38.08087809,13.31113413,1,1,Europe/Rome,,,0
1202,1202,MOLARA - PIAZZA MOLARA,,38.08093087,13.31120118,1,1,Europe/Rome,,,0
1211,1211,MONTE SAN CALOGERO,,38.1539557,13.32428239,1,1,Europe/Rome,,,0
634,634,DEI MILLE - FONDO VITALE,,38.09311123,13.40768789,1,1,Europe/Rome,,,0
1217,1217,MONTEPELLEGRINO - MERCATO,,38.13658716,13.35845232,1,1,Europe/Rome,,,0
1214,1214,MONTEPELLEGRINO - AMMIRAGLIO RIZZO,,38.14088231,13.35777909,1,1,Europe/Rome,,,0
1447,1447,PERPIGNANO - REGIONE SICILIANA,,38.11942202,13.32796398,1,1,Europe/Rome,,,0
1446,1446,PERPIGNANO - POLITO,,38.11938033,13.33696426,1,1,Europe/Rome,,,0
1113,1113,MARINI,,38.10047954,13.35051582,1,1,Europe/Rome,,,0
1112,1112,MARGHERITA DI SAVOIA - VENERE,,38.19198495,13.33248585,1,1,Europe/Rome,,,0
1443,1443,PERPIGNANO - JATO,,38.11997936,13.32340167,1,1,Europe/Rome,,,0
1442,1442,PERPIGNANO - FIUMEFREDDO,,38.11967358,13.3258818,1,1,Europe/Rome,,,0
1117,1117,MARINUZZI - PISACANE,,38.1079101,13.36373895,1,1,Europe/Rome,,,0
1440,1440,PERPIGNANO - D'AQUINO,,38.11904212,13.33491728,1,1,Europe/Rome,,,0
1119,1119,MATER DOLOROSA - BARBADORO,,38.17437667,13.33210167,1,1,Europe/Rome,,,0
1118,1118,MATER DOLOROSA - BARBADORO,,38.17457833,13.332685,1,1,Europe/Rome,,,0
1449,1449,PIANO LEVANTE,,38.19845643,13.25067982,1,1,Europe/Rome,,,0
1448,1448,PERPIGNANO - RUGGERONE DA PALERMO,,38.11899679,13.33212195,1,1,Europe/Rome,,,0
1357,1357,PAPA GIOVANNI XXIII - BASSOTTO,,38.08513008,13.36199015,1,1,Europe/Rome,,,0
1356,1356,PANTALICA - ZANCLE,,38.12652125,13.29264969,1,1,Europe/Rome,,,0
1355,1355,PANTALICA - ZANCLE,,38.12665628,13.29276234,1,1,Europe/Rome,,,0
488,488,CONTE FEDERICO - TORTORICI,,38.09470776,13.38448316,1,1,Europe/Rome,,,0
487,487,CONTE FEDERICO - TORTORICI,,38.094585,13.38458167,1,1,Europe/Rome,,,0
484,484,CONTE FEDERICO - GRIGOLI,,38.09254302,13.3894667,1,1,Europe/Rome,,,0
482,482,CONTE FEDERICO - GIAFAR,,38.09316258,13.38672817,1,1,Europe/Rome,,,0
481,481,CONTE FEDERICO - GIAFAR,,38.09297667,13.38668833,1,1,Europe/Rome,,,0
480,480,CONTE FEDERICO - GALEANO,,38.08849624,13.39622319,1,1,Europe/Rome,,,0
199,199,BESIO 1,,38.1377642,13.31053922,1,1,Europe/Rome,,,0
198,198,BESIO - BARISANO DA TRANI,,38.13679532,13.31253015,1,1,Europe/Rome,,,0
194,194,BERNINI 2,,38.13664475,13.32231594,1,1,Europe/Rome,,,0
196,196,BERRETTARO,,38.13809833,13.308315,1,1,Europe/Rome,,,0
193,193,BERNINI 1,,38.13664648,13.32237948,1,1,Europe/Rome,,,0
1456,1456,PIAZZA ARMERINA - ISPICA,,38.129834685,13.29593874,1,1,Europe/Rome,,,0
1453,1453,PIAZZA AMENDOLA,,38.12264833,13.35121833,1,1,Europe/Rome,,,0
902,902,IANDOLINO - CATALANO,,38.1972128,13.31421266,1,1,Europe/Rome,,,0
903,903,IANDOLINO - PARTANNA MONDELLO,,38.19630657,13.31160237,1,1,Europe/Rome,,,0
900,900,HOLM - SCOBAR,,38.12672489,13.33141964,1,1,Europe/Rome,,,0
901,901,IANDOLINO,,38.19629,13.31182,1,1,Europe/Rome,,,0
906,906,IMPERATORE FEDERICO - METRO',,38.14538289,13.34792733,1,1,Europe/Rome,,,0
907,907,IMPERATORE FEDERICO - METRO',,38.1455664,13.34819287,1,1,Europe/Rome,,,0
904,904,IMPERATORE FEDERICO - FIERA,,38.14696833,13.35266,1,1,Europe/Rome,,,0
905,905,IMPERATORE FEDERICO - FIERA,,38.147085,13.35293667,1,1,Europe/Rome,,,0
908,908,IMPERATORE FEDERICO - MINZONI,,38.14584063,13.34926039,1,1,Europe/Rome,,,0
909,909,IMPERATORE FEDERICO,,38.14633001,13.35077584,1,1,Europe/Rome,,,0
1847,1847,S.P. 69 ROCCA - MONREALE,,38.092955,13.30551333,1,1,Europe/Rome,,,0
1846,1846,S.P. 69 ROCCA - MONREALE,,38.09322667,13.30562833,1,1,Europe/Rome,,,0
2165,2165,VILLAGRAZIA 10,,38.081635,13.33552667,1,1,Europe/Rome,,,0
2164,2164,VILLAGRAZIA 1,,38.09287667,13.35876667,1,1,Europe/Rome,,,0
2167,2167,VILLAGRAZIA 3,,38.08175532,13.33553821,1,1,Europe/Rome,,,0
2166,2166,VILLAGRAZIA 2,,38.09093333,13.354835,1,1,Europe/Rome,,,0
2161,2161,VILLAGRAZIA - VILLA FERNANDEZ,,38.07640333,13.33218833,1,1,Europe/Rome,,,0
2160,2160,VILLAGRAZIA - VILLA FERNANDEZ,,38.07657,13.33213667,1,1,Europe/Rome,,,0
2163,2163,VILLAGRAZIA - ZUPPETTA,,38.07811833,13.33339167,1,1,Europe/Rome,,,0
2162,2162,VILLAGRAZIA - ZUPPETTA,,38.07820306,13.3333844,1,1,Europe/Rome,,,0
1908,1908,SARULLO - PAPALEO,,38.12401355,13.30294937,1,1,Europe/Rome,,,0
1909,1909,SARULLO - PAPALEO,,38.12414223,13.30295205,1,1,Europe/Rome,,,0
1906,1906,SARULLO - CASA DEL SOLE,,38.12099031,13.30566383,1,1,Europe/Rome,,,0
1907,1907,SARULLO - CASA DEL SOLE,,38.12115048,13.30563024,1,1,Europe/Rome,,,0
1904,1904,SANTUARIO,,38.16816942,13.35103333,1,1,Europe/Rome,,,0
1905,1905,SANTUARIO,,38.1682116,13.35099042,1,1,Europe/Rome,,,0
1903,1903,SANTUARIO DI CRUILLAS,,38.14,13.32799333,1,1,Europe/Rome,,,0
856,856,GALLETTI - BONADONNA,,38.087515,13.43305333,1,1,Europe/Rome,,,0
857,857,GALLETTI - MESSINA MARINE,,38.095805,13.428985,1,1,Europe/Rome,,,0
850,850,GALILEI - GIOTTO,,38.13063238,13.33457261,1,1,Europe/Rome,,,0
851,851,GALILEI - GIOTTO,,38.13140667,13.33430833,1,1,Europe/Rome,,,0
853,853,GALILEI - LEONARDO DA VINCI,,38.13043333,13.33492833,1,1,Europe/Rome,,,0
858,858,GALLETTI - MESSINA MARINE,,38.09609167,13.42869333,1,1,Europe/Rome,,,0
859,859,GALLETTI - TAGLIAVIA,,38.08798833,13.43288333,1,1,Europe/Rome,,,0
6,6,ACC. A29 MONTE - COSTANTINO,,38.17423426,13.29631486,1,1,Europe/Rome,,,0
425,425,CHIRONE - CASTELFORTE,,38.19451459,13.3155705,1,1,Europe/Rome,,,0
9029,9029,REBER,,38.096345565,13.406180475,1,1,Europe/Rome,,,0
9028,9028,REBER,,38.096134805,13.40668906,1,1,Europe/Rome,,,0
20000,,STAZIONE CENTRALE,,38.1100604585,13.3665241911,1,1,Europe/Rome,,,1
9025,9025,MISSORI,,38.10081222,13.38328087,1,1,Europe/Rome,,,0
9024,9024,INGRASSIA,,38.109127485,13.370379395,1,1,Europe/Rome,,,0
9027,9027,PONTE AMMIRAGLIO,,38.1049173,13.3762632,1,1,Europe/Rome,,,0
9026,9026,MISSORI,,38.100928,13.384063,1,1,Europe/Rome,,,0
9021,9021,ROCCELLA,,38.0888716167,13.4087766667,1,1,Europe/Rome,,,0
9020,9020,DI VITTORIO,,38.09544679,13.408778985,1,1,Europe/Rome,,,0
9023,9023,INGRASSIA,,38.108596,13.3708086,1,1,Europe/Rome,,,0
740,740,DUCA DEGLI ABRUZZI - PALAZZINA CINESE,,38.1657052,13.33058314,1,1,Europe/Rome,,,0
741,741,DUCA DEGLI ABRUZZI - PALLAVICINO,,38.17134833,13.327595,1,1,Europe/Rome,,,0
742,742,DUCA DEGLI ABRUZZI - PALLAVICINO,,38.17169833,13.32739833,1,1,Europe/Rome,,,0
743,743,DUCA DELLA VERDURA - GIACHERY,,38.13514897,13.35546906,1,1,Europe/Rome,,,0
744,744,DUCA DELLA VERDURA - LIBERTA',,38.1342461537,13.3516066137,1,1,Europe/Rome,,,0
745,745,DUCA DELLA VERDURA - TOSELLI,,38.13502494,13.3547093,1,1,Europe/Rome,,,0
746,746,DUCA DELLA VERDURA - TOSELLI,,38.13476563,13.3539324,1,1,Europe/Rome,,,0
1050,1050,LISZT,,38.13619667,13.33608833,1,1,Europe/Rome,,,0
1051,1051,M. MONTAGNE - FIGURELLA,,38.08211,13.43383833,1,1,Europe/Rome,,,0
1052,1052,M. MONTAGNE 1,,38.083324,13.42816732,1,1,Europe/Rome,,,0
1053,1053,M. MONTAGNE 2,,38.08275667,13.430815,1,1,Europe/Rome,,,0
1054,1054,M. MONTAGNE 2,,38.08272222,13.43122081,1,1,Europe/Rome,,,0
1055,1055,M. MONTAGNE 1,,38.08339855,13.428085,1,1,Europe/Rome,,,0
1058,1058,MADDALENA - DI BELLA,,38.09952183,13.30994748,1,1,Europe/Rome,,,0
1059,1059,MADDALENA - DI BELLA,,38.09652414,13.3097823,1,1,Europe/Rome,,,0
1697,1697,REGIONE SICILIANA - TRABUCCO 3,,38.154975,13.318265,1,1,Europe/Rome,,,0
1694,1694,REGIONE SICILIANA - SS. MEDIATRICE,,38.10081877,13.33147568,1,1,Europe/Rome,,,0
1692,1692,REGIONE SICILIANA - SARDEGNA,,38.14415287,13.33076443,1,1,Europe/Rome,,,0
1690,1690,REGIONE SICILIANA - SAN CIRO,,38.09054878,13.38301083,1,1,Europe/Rome,,,0
1691,1691,REGIONE SICILIANA - SANTUARIO DI CRUILLAS,,38.13678445,13.33050956,1,1,Europe/Rome,,,0
1698,1698,REGIONE SICILIANA - TROINA,,38.08941922,13.3616588,1,1,Europe/Rome,,,0
1699,1699,REGIONE SICILIANA - TROINA,,38.08934593,13.36168438,1,1,Europe/Rome,,,0
1279,1279,OLIO DI LINO 14,,38.08494122,13.32642305,1,1,Europe/Rome,,,0
618,618,DEI MILLE - BANDITA,,38.091499,13.41267948,1,1,Europe/Rome,,,0
619,619,DEI MILLE - BENNICI,,38.10570333,13.37502333,1,1,Europe/Rome,,,0
1270,1270,OLIMPO,,38.18887701,13.30490492,1,1,Europe/Rome,,,0
613,613,DEGLI EMIRI - NINA SICILIANA,,38.1154178,13.33321407,1,1,Europe/Rome,,,0
1272,1272,OLIO DI LINO - MOLARA,,38.07859468,13.31358297,1,1,Europe/Rome,,,0
1273,1273,OLIO DI LINO - MOLARA,,38.07849113,13.31367293,1,1,Europe/Rome,,,0
616,616,DEI MILLE - BALSAMO,,38.11034,13.369415,1,1,Europe/Rome,,,0
617,617,DEI MILLE - BANDITA,,38.09142811,13.41265709,1,1,Europe/Rome,,,0
614,614,DEI FIORI - PAULSEN,,38.10068149,13.3272057,1,1,Europe/Rome,,,0
1472,1472,PIAZZA DON STURZO,,38.126275,13.35756333,1,1,,,80000,0
1473,1473,PIAZZA EISTEIN,,38.12898667,13.3285,1,1,Europe/Rome,,,0
1470,1470,PIAZZA DELLA PACE,,38.13137047,13.35999876,1,1,Europe/Rome,,,0
1471,1471,PIAZZA DELLA SERENITA',,38.19815167,13.30957,1,1,Europe/Rome,,,0
1477,1477,PIAZZA LAMPADA DELLA FRATERNITA',,38.14518333,13.31535,1,1,Europe/Rome,,,0
1474,1474,PIAZZA G.LE TURBA,,38.10076667,13.33847833,1,1,Europe/Rome,,,0
1478,1478,PIAZZA MANDORLE,,38.18840221,13.2893157,1,1,Europe/Rome,,,0
1304,1304,ORETO - ORSI,,38.09434685,13.37521049,1,1,Europe/Rome,,,0
1305,1305,ORETO - REGIONE SICILIANA,,38.0924178,13.37648763,1,1,Europe/Rome,,,0
1306,1306,ORETO - REGIONE SICILIANA,,38.09254833,13.37649167,1,1,Europe/Rome,,,0
1307,1307,ORETO - S. ANTONINO,,38.10915528,13.36561248,1,1,Europe/Rome,,,0
1300,1300,ORETO - MENDOLA,,38.10615167,13.36768667,1,1,Europe/Rome,,,0
1301,1301,ORETO - ORSA MINORE,,38.09687137,13.373584,1,1,Europe/Rome,,,0
1302,1302,ORETO - ORSA MINORE,,38.0968276833,13.3737266733,1,1,Europe/Rome,,,0
1303,1303,ORETO - ORSA MINORE - O.S.6,,38.09759,13.37302,1,1,Europe/Rome,,,0
1308,1308,ORETO - SIRILLO,,38.09402805,13.37552324,1,1,Europe/Rome,,,0
1309,1309,ORSA MAGGIORE - CAPRICORNO,,38.09382,13.36336,1,1,Europe/Rome,,,0
498,498,CONTESSA GIUDITTA,,38.11653308,13.34602833,1,1,Europe/Rome,,,0
499,499,COPPI,,38.18052193,13.31773565,1,1,Europe/Rome,,,0
497,497,CONTE FEDERICO - CHIAZZESE,,38.09393623,13.38549972,1,1,Europe/Rome,,,0
50000,,PIAZZALE JOHN LENNON,,38.1317896525,13.3309374237,1,1,Europe/Rome,,,1
25,25,ACIREALE - BISACQUINO,,38.13126677,13.30210297,1,1,Europe/Rome,,,0
26,26,ACIREALE - BISACQUINO,,38.13107667,13.30176333,1,1,Europe/Rome,,,0
27,27,ACIREALE - PIAZZA S. CRISTINA,,38.13023656,13.29970198,1,1,Europe/Rome,,,0
20,20,ACC. A29 VALLE 4,,38.18349448,13.29079813,1,1,Europe/Rome,,,0
21,21,ACC. MONTE A19 - BRASCA,,38.09042067,13.38193992,1,1,Europe/Rome,,,0
22,22,ACC. MONTE A19 - MAREDOLCE,,38.08865457,13.38711575,1,1,Europe/Rome,,,0
23,23,ACC. MONTE A19 - GALEANO,,38.08703959,13.39603543,1,1,Europe/Rome,,,0
28,28,AI VILLINI A S. ISIDORO - DE FRANCISCO,,38.12194457,13.29745958,1,1,Europe/Rome,,,0
29,29,AI VILLINI A S. ISIDORO - FALCONARA,,38.12016768,13.29864971,1,1,Europe/Rome,,,0
7,7,ACC. A29 MONTE - MONTE ROSA,,38.1700749,13.3000941,1,1,Europe/Rome,,,0
2288,2288,LANZA DI SCALEA - BESTA,,38.17557089,13.31053683,1,1,Europe/Rome,,,0
2289,2289,BONELLO - CATTEDRALE,,38.11458279,13.35495966,1,1,Europe/Rome,,,0
976,976,L'EMIRO - ARISTIPPO,,38.11436333,13.33795167,1,1,Europe/Rome,,,0
2280,2280,ZUMBO - BERRETTARO,,38.13690561,13.30686645,1,1,Europe/Rome,,,0
2281,2281,REGIONE SICILIANA N.O.MONTE - SOCRATE,,38.18592961,13.28775325,1,1,Europe/Rome,,,0
2282,2282,CAVOUR - PREFETTURA,,38.12216917,13.36158508,1,1,Europe/Rome,,,0
2283,2283,IMERA - COLONNA ROTTA,,38.11224832,13.35056265,1,1,Europe/Rome,,,0
2284,2284,ANITA GARIBALDI,,38.10313035,13.38503855,1,1,Europe/Rome,,,0
2285,2285,PAULSEN,,38.09926154,13.32525874,1,1,Europe/Rome,,,0
2286,2286,AQUINO - CHIESA,,38.07474468,13.30310962,1,1,Europe/Rome,,,0
2287,2287,ACIREALE - PIAZZA S.CRISTINA,,38.13026135,13.29996687,1,1,Europe/Rome,,,0
590,590,DANTE - VILLA MALFITANO,,38.12165341,13.34184676,1,1,Europe/Rome,,,0
1876,1876,SALAMONE MARINO,,38.10803753,13.360995535,1,1,Europe/Rome,,,0
1874,1874,SALINE,,38.19747324,13.31962724,1,1,Europe/Rome,,,0
1875,1875,SALINE,,38.19745902,13.31952484,1,1,Europe/Rome,,,0
1873,1873,SALINAS - VILLA TRABIA,,38.12868708,13.34627107,1,1,Europe/Rome,,,0
1870,1870,SALGARI - PAPINI,,38.18820404,13.29161167,1,1,Europe/Rome,,,0
977,977,L'EMIRO - CASTELLUCCIO,,38.11432678,13.3380045,1,1,Europe/Rome,,,0
182,182,BASILE - RE RUGGERO,,38.10740833,13.35439,1,1,Europe/Rome,,,0
971,971,LAZIO - MUNICIPIO,,38.1405535,13.33311036,1,1,Europe/Rome,,,0
970,970,LAZIO - MUNICIPIO,,38.14036263,13.33274188,1,1,Europe/Rome,,,0
979,979,L'EMIRO - EDRISI,,38.11472457,13.33985925,1,1,Europe/Rome,,,0
978,978,L'EMIRO - DI SVEVIA,,38.11462333,13.33955333,1,1,Europe/Rome,,,0
2118,2118,VILLABIANCA - AUTONOMIA SICILIANA,,38.13940351,13.34914505,1,1,Europe/Rome,,,0
2119,2119,VILLABIANCA - AUTONOMIA SICILIANA,,38.13937334,13.34904218,1,1,Europe/Rome,,,0
181,181,BASILE - RAITI,,38.09672333,13.34470167,1,1,Europe/Rome,,,0
186,186,BELGIO,,38.15147667,13.33063333,1,1,Europe/Rome,,,0
187,187,BELGIO,,38.15124333,13.33051667,1,1,Europe/Rome,,,0
184,184,BASILE - UNIVERSITA' SEGRETERIE,,38.10568667,13.35176,1,1,Europe/Rome,,,0
185,185,BASILE - UNIVERSITA' SEGRETERIE,,38.10652833,13.35258667,1,1,Europe/Rome,,,0
2110,2110,VENEZIANO - FINOCCHIARO APRILE,,38.118545,13.34602,1,1,Europe/Rome,,,0
2111,2111,VENEZIANO - VILLA FLORIO,,38.12112091,13.345076,1,1,Europe/Rome,,,0
188,188,BENEDETTINI,,38.10873736,13.35560871,1,1,Europe/Rome,,,0
2113,2113,VERGINE MARIA,,38.16460765,13.36933672,1,1,Europe/Rome,,,0
2114,2114,VILLA ADRIANA,,38.16344333,13.32011333,1,1,Europe/Rome,,,0
2115,2115,VILLA SOFIA - CROCE ROSSA,,38.15430167,13.33771667,1,1,Europe/Rome,,,0
2116,2116,VILLABIANCA - ARIMONDI,,38.13630341,13.35116878,1,1,Europe/Rome,,,0
2117,2117,VILLABIANCA - ARIMONDI,,38.13628386,13.35111302,1,1,Europe/Rome,,,0
1911,1911,SAURO - MONTUORO,,38.12463789,13.33070094,1,1,Europe/Rome,,,0
1910,1910,SAURO - GUALTIERO,,38.12342271,13.33185688,1,1,Europe/Rome,,,0
1913,1913,SAURO - NOCE,,38.12293317,13.33221495,1,1,Europe/Rome,,,0
1912,1912,SAURO - MONTUORO,,38.12464652,13.33213851,1,1,Europe/Rome,,,0
1914,1914,SAVONAROLA - PERPIGNANO,,38.12124167,13.32091375,1,1,Europe/Rome,,,0
869,869,GENERALE CASCINO - FIERA DEL MEDITERRANEO,,38.14272392,13.35713267,1,1,Europe/Rome,,,0
868,868,GALLO,,38.20867364,13.32736015,1,1,Europe/Rome,,,0
861,861,GALLETTI - ZITA,,38.091995,13.43131167,1,1,Europe/Rome,,,0
860,860,GALLETTI - TAGLIAVIA,,38.08856167,13.432815,1,1,Europe/Rome,,,0
863,863,GALLETTI 1,,38.09103167,13.432045,1,1,Europe/Rome,,,0
862,862,GALLETTI - ZITA,,38.09277,13.43080333,1,1,Europe/Rome,,,0
865,865,GALLETTI 2,,38.09428167,13.43004833,1,1,Europe/Rome,,,0
864,864,GALLETTI 2,,38.09443333,13.42997833,1,1,Europe/Rome,,,0
867,867,GALLETTI 1,,38.09088167,13.43207333,1,1,Europe/Rome,,,0
2024,2024,TINDARI - PANTALICA,,38.12836322,13.29335913,1,1,Europe/Rome,,,0
2025,2025,TINDARI 1,,38.12870301,13.29569349,1,1,Europe/Rome,,,0
2026,2026,TINDARI 2,,38.12858437,13.29535198,1,1,Europe/Rome,,,0
2020,2020,TIEPOLO,,38.13521133,13.32285228,1,1,Europe/Rome,,,0
2021,2021,TIEPOLO - UDITORE,,38.13499675,13.32235422,1,1,Europe/Rome,,,0
2022,2022,TINDARI - CEFALU',,38.12844445,13.29505965,1,1,Europe/Rome,,,0
2023,2023,TINDARI - PANTALICA,,38.12830836,13.2932961,1,1,Europe/Rome,,,0
2028,2028,TIRO A SEGNO,,38.11164374,13.37677391,1,1,Europe/Rome,,,0
2029,2029,TOLOMEA,,38.20654559,13.31714182,1,1,Europe/Rome,,,0
880,880,GIAFAR - TORRELUNGA,,38.09809767,13.39117073,1,1,Europe/Rome,,,0
887,887,GIOTTO - REGIONE SICILIANA,,38.13108167,13.33172,1,1,Europe/Rome,,,0
886,886,GIOTTO - GALILEI,,38.13083493,13.33269775,1,1,Europe/Rome,,,0
889,889,GOETHE,,38.12028289,13.35064374,1,1,Europe/Rome,,,0
9058,9058,MICHELANGELO,,38.131127215,13.30462573,1,1,Europe/Rome,,,0
9059,9059,MICHELANGELO,,38.13130833,13.30513774,1,1,Europe/Rome,,,0
9050,9050,RESPIGHI - PIAZZA ZIINO,,38.13105451,13.33912995,1,1,Europe/Rome,,,0
9051,9051,RUGGERI,,38.12686605,13.31866539,1,1,Europe/Rome,,,0
9052,9052,CEP,,38.1344073075,13.3095564725,1,1,Europe/Rome,,,0
9054,9054,CAMPO RIBOLLA,,38.12663868,13.3102694,1,1,Europe/Rome,,,0
9055,9055,CAMPO RIBOLLA,,38.126657555,13.3097281,1,1,Europe/Rome,,,0
9056,9056,CASALINI,,38.12673612,13.31400378,1,1,Europe/Rome,,,0
9057,9057,CASALINI,,38.126749305,13.313228065,1,1,Europe/Rome,,,0
775,775,EUROPA - PIEMONTE,,38.08008667,13.4363,1,1,Europe/Rome,,,0
774,774,EUROPA - PIAVE,,38.07536,13.44855,1,1,Europe/Rome,,,0
777,777,EUROPA - S. GIUSEPPE,,38.07619833,13.439925,1,1,Europe/Rome,,,0
776,776,EUROPA - PUGLISI,,38.07848,13.437715,1,1,Europe/Rome,,,0
771,771,ERRANTE - PEREZ,,38.10812959,13.36571306,1,1,Europe/Rome,,,0
770,770,ERRANTE - CORAZZA,,38.106975,13.3631,1,1,Europe/Rome,,,0
773,773,EUROPA - PELORITANI,,38.07551,13.44410333,1,1,Europe/Rome,,,0
772,772,EUROPA - DELLA RINASCITA,,38.07562,13.44195333,1,1,Europe/Rome,,,0
779,779,FALCONARA - AI VILLINI A S. ISIDORO,,38.1184903,13.29761311,1,1,Europe/Rome,,,0
778,778,EUROPA - TAORMINA,,38.07540833,13.44715667,1,1,Europe/Rome,,,0
77,77,ALTOFONTE - SAMBUCIA,,38.08824502,13.32948178,1,1,Europe/Rome,,,0
76,76,ALTOFONTE - SAMBUCIA,,38.0900489,13.33073974,1,1,Europe/Rome,,,0
75,75,ALTOFONTE - REGIONE SICILIANA,,38.09511167,13.33602333,1,1,Europe/Rome,,,0
74,74,ALTOFONTE - REGIONE SICILIANA,,38.09434311,13.33555578,1,1,Europe/Rome,,,0
73,73,ALTOFONTE - PIAZZA PAGLIARELLI,,38.09116456,13.33249122,1,1,Europe/Rome,,,0
72,72,ALTOFONTE - PIAZZA PAGLIARELLI,,38.091289,13.33253622,1,1,Europe/Rome,,,0
71,71,ALTOFONTE - OLIO DI LINO,,38.08683167,13.32824833,1,1,Europe/Rome,,,0
70,70,ALTOFONTE - OLIO DI LINO,,38.08689921,13.32821846,1,1,Europe/Rome,,,0
79,79,ALTOFONTE - VILLANI,,38.09278683,13.33444118,1,1,Europe/Rome,,,0
78,78,ALTOFONTE - VILLANI,,38.09245647,13.33390742,1,1,Europe/Rome,,,0
1043,1043,LINCOLN - ARCHIRAFI,,38.11244119,13.37015346,1,1,Europe/Rome,,,0
1042,1042,LINCOLN - ARCHIRAFI,,38.11203178,13.36950704,1,1,Europe/Rome,,,0
1041,1041,LIBERTA' - VILLA PAINO,,38.13733667,13.34741667,1,1,Europe/Rome,,,0
1040,1040,LIBERTA' - VILLA PAINO,,38.13758186,13.34727287,1,1,Europe/Rome,,,0
1047,1047,LINCOLN - VILLA GIULIA,,38.1144133,13.37461665,1,1,Europe/Rome,,,0
1046,1046,LINCOLN - ORTO BOTANICO,,38.11307008,13.37152273,1,1,Europe/Rome,,,0
1045,1045,LINCOLN - ORTO BOTANICO,,38.11364726,13.37292552,1,1,Europe/Rome,,,0
1044,1044,LINCOLN - DEI MILLE,,38.11131003,13.36776093,1,1,Europe/Rome,,,0
1049,1049,LISZT,,38.13699032,13.33590117,1,1,Europe/Rome,,,0
1048,1048,LINCOLN - VILLA GIULIA,,38.11480476,13.37526172,1,1,Europe/Rome,,,0
1681,1681,REGIONE SICILIANA - POLLACI,,38.105929,13.32994703,1,1,Europe/Rome,,,0
1680,1680,REGIONE SICILIANA - PLATANIA,,38.09880366,13.33346016,1,1,Europe/Rome,,,0
1683,1683,REGIONE SICILIANA - PONTE CORLEONE,,38.09068722,13.34296826,1,1,Europe/Rome,,,0
1682,1682,REGIONE SICILIANA - PONTE CORLEONE,,38.09101833,13.34319167,1,1,Europe/Rome,,,0
1685,1685,REGIONE SICILIANA - PRINCIPE DI PATERNO',,38.13535333,13.330925,1,1,Europe/Rome,,,0
1684,1684,REGIONE SICILIANA - PORTELLO,,38.11279167,13.32983167,1,1,Europe/Rome,,,0
1686,1686,REGIONE SICILIANA - S. FILIPPO,,38.09000478,13.36326203,1,1,Europe/Rome,,,0
1689,1689,REGIONE SICILIANA - S. M. DI GESU',,38.09011655,13.37337573,1,1,Europe/Rome,,,0
1688,1688,REGIONE SICILIANA - S. M. DI GESU',,38.0897,13.37386615,1,1,Europe/Rome,,,0
1269,1269,OLIMPO - VILLA SCALEA,,38.18911295,13.30139959,1,1,Europe/Rome,,,0
1268,1268,OLIMPO - VILLA SCALEA,,38.18889599,13.30238901,1,1,Europe/Rome,,,0
1263,1263,OLIMPO - CHIRONE,,38.18886408,13.30759238,1,1,Europe/Rome,,,0
1262,1262,OLIMPO - CASTELFORTE,,38.18903255,13.32019866,1,1,Europe/Rome,,,0
1261,1261,OLIMPO - CASTELFORTE,,38.18889025,13.32078338,1,1,Europe/Rome,,,0
1260,1260,OLIMPO - ASPASIA,,38.18884947,13.31199148,1,1,Europe/Rome,,,0
1267,1267,OLIMPO - PALASPORT,,38.18906206,13.31676006,1,1,Europe/Rome,,,0
662,662,DEI MILLE - XXVII MAGGIO,,38.09451645,13.40390891,1,1,Europe/Rome,,,0
661,661,DEI MILLE - XXVII MAGGIO,,38.09461233,13.40357326,1,1,Europe/Rome,,,0
1264,1264,OLIMPO - CHIRONE,,38.18909783,13.30680473,1,1,Europe/Rome,,,0
1469,1469,PIAZZA DELLA PACE,,38.13192781,13.3600992,1,1,Europe/Rome,,,0
1465,1465,PIAZZA BORDONARO,,38.165575,13.367525,1,1,Europe/Rome,,,0
1464,1464,PIAZZA BOIARDO,,38.13249812,13.34256595,1,1,Europe/Rome,,,0
1467,1467,PIAZZA CAMPOREALE,,38.12009403,13.34025621,1,1,Europe/Rome,,,0
1466,1466,PIAZZA BORDONARO,,38.16543,13.36839,1,1,Europe/Rome,,,0
1462,1462,PIAZZA BAIDA,,38.11424553,13.29616338,1,1,Europe/Rome,,,0
1317,1317,ORSA MINORE - CHIAVELLI,,38.09555738,13.36927503,1,1,Europe/Rome,,,0
1316,1316,ORSA MINORE - CHIAVELLI,,38.09483667,13.36798667,1,1,Europe/Rome,,,0
1314,1314,ORSA MINORE - ALBIRI,,38.09072126,13.36553201,1,1,Europe/Rome,,,0
1312,1312,ORSA MAGGIORE - ORSA MINORE,,38.09379691,13.36486012,1,1,Europe/Rome,,,0
1311,1311,ORSA MAGGIORE - ORSA MINORE,,38.09390167,13.36517,1,1,Europe/Rome,,,0
1310,1310,ORSA MAGGIORE - CAPRICORNO,,38.09372408,13.36319983,1,1,Europe/Rome,,,0
1319,1319,ORSA MINORE - ORETO,,38.09689045,13.37245113,1,1,Europe/Rome,,,0
1318,1318,ORSA MINORE - ORETO,,38.09688,13.37217833,1,1,Europe/Rome,,,0
529,529,CRISTOFORO COLOMBO - CARONIA ROBERTI,,38.19095094,13.34429026,1,1,Europe/Rome,,,0
319,319,CANTIERI - JUVARA,,38.13709348,13.3629638,1,1,Europe/Rome,,,0
318,318,CANTIERI - GIACHERY,,38.13614729,13.3595936,1,1,Europe/Rome,,,0
313,313,CAMPOLO - PACINOTTI,,38.12861833,13.336585,1,1,Europe/Rome,,,0
312,312,CAMPANIA - PUGLIA,,38.14494331,13.33878864,1,1,Europe/Rome,,,0
311,311,CAMPANIA - BRIGATA VERONA,,38.14464312,13.33935638,1,1,Europe/Rome,,,0
310,310,CAMARINA,,38.17444592,13.33472715,1,1,Europe/Rome,,,0
317,317,CANTIERI - GIACHERY,,38.13616628,13.35933477,1,1,Europe/Rome,,,0
316,316,CANTIERI - BARCA,,38.13721373,13.3638221,1,1,Europe/Rome,,,0
315,315,CAMPOREALE - GILI,,38.11964773,13.34044397,1,1,Europe/Rome,,,0
314,314,CAMPOLO - SERRADIFALCO,,38.12906265,13.33734065,1,1,Europe/Rome,,,0
1337,1337,PALADINI - BARISANO DA TRANI,,38.13600333,13.30887667,1,1,Europe/Rome,,,0
446,446,CIACULLI 2,,38.08497491,13.39388162,1,1,Europe/Rome,,,0
630,630,DEI MILLE - CORSELLI,,38.09631934,13.39868703,1,1,Europe/Rome,,,0
2293,2293,DE GASPERI - AUSONIA,,38.15043452,13.33567821,1,1,Europe/Rome,,,0
2292,2292,DEI PICCIOTTI,,38.10323355,13.3853306,1,1,Europe/Rome,,,0
2291,2291,DONIZZETTI,,38.11954673,13.35753164,1,1,Europe/Rome,,,0
2290,2290,SPIRITO SANTO,,38.11734081,13.35738266,1,1,Europe/Rome,,,0
2295,2295,NEBRODI,,38.15541164,13.32595648,1,1,Europe/Rome,,,0
281,281,CALATAFIMI - MARINUZZI,,38.10510833,13.33528833,1,1,Europe/Rome,,,0
1865,1865,SADAT - AUTONOMIA SICILIANA,,38.1450285883,13.3552481283,1,1,Europe/Rome,,,0
1866,1866,SADAT - FIERA,,38.14652167,13.35409333,1,1,Europe/Rome,,,0
1869,1869,SALGARI - JACK LONDON,,38.18829469,13.2915929,1,1,Europe/Rome,,,0
967,967,LAZIO - DELLE ALPI,,38.14103613,13.33474919,1,1,Europe/Rome,,,0
960,960,LASCARIS - ZISA,,38.11677997,13.34722325,1,1,Europe/Rome,,,0
961,961,LATINI,,38.12272639,13.35055187,1,1,Europe/Rome,,,0
962,962,LAUDICINA - DEI MILLE,,38.09286833,13.41029167,1,1,Europe/Rome,,,0
968,968,LAZIO - DELLE ALPI,,38.1414312,13.33577862,1,1,Europe/Rome,,,0
2108,2108,VENERE,,38.18985999,13.32945764,1,1,Europe/Rome,,,0
2103,2103,VENERE - MARGHERITA DI SAVOIA,,38.19013405,13.33151221,1,1,Europe/Rome,,,0
2102,2102,VENERE - CASTELFORTE,,38.18919909,13.32477853,1,1,Europe/Rome,,,0
2101,2101,VENERE - CASTELFORTE,,38.18910107,13.32483351,1,1,Europe/Rome,,,0
286,286,CALATAFIMI - OSPEDALE MILITARE,,38.10376333,13.33190167,1,1,Europe/Rome,,,0
2107,2107,VENERE,,38.18975353,13.32947642,1,1,Europe/Rome,,,0
2106,2106,VENERE - MARINAI ALLIATA,,38.18957,13.32745,1,1,Europe/Rome,,,0
2105,2105,VENERE - MARINAI ALLIATA,,38.18950477,13.32774371,1,1,Europe/Rome,,,0
2104,2104,VENERE - MARGHERITA DI SAVOIA,,38.19008451,13.33197221,1,1,Europe/Rome,,,0
1560,1560,PITRE' - PINDEMONTE,,38.11056,13.33883333,1,1,Europe/Rome,,,0
1241,1241,NICOLETTI - PARTANNA MONDELLO,,38.18945398,13.29425096,1,1,Europe/Rome,,,0
636,636,DEI MILLE - FORNI,,38.09594478,13.40026841,1,1,Europe/Rome,,,0
878,878,GIAFAR - PECORAINO,,38.09668,13.38992667,1,1,Europe/Rome,,,0
879,879,GIAFAR - PECORAINO,,38.09665501,13.38998035,1,1,Europe/Rome,,,0
876,876,GIAFAR - PANZERA,,38.09401833,13.387755,1,1,Europe/Rome,,,0
877,877,GIAFAR - PANZERA,,38.09392989,13.38775277,1,1,Europe/Rome,,,0
874,874,GIAFAR - BRASCA,,38.09222005,13.3862333,1,1,Europe/Rome,,,0
875,875,GIAFAR - BRASCA,,38.09168667,13.38588,1,1,Europe/Rome,,,0
873,873,GIACHERY,,38.13581185,13.35794538,1,1,Europe/Rome,,,0
2037,2037,TOMMASO NATALE - CROCETTA,,38.18271779,13.29318013,1,1,Europe/Rome,,,0
2036,2036,TOMMASO NATALE - CROCETTA,,38.18313167,13.29303333,1,1,Europe/Rome,,,0
2035,2035,TOMMASO NATALE - COSTANTINO,,38.17577,13.29942333,1,1,Europe/Rome,,,0
2034,2034,TOMMASO NATALE - COSTANTINO,,38.17548854,13.2999748,1,1,Europe/Rome,,,0
2033,2033,TOMMASO NATALE - BETTI,,38.17791333,13.29695333,1,1,Europe/Rome,,,0
2032,2032,TOMMASO NATALE - BETTI,,38.17784598,13.29717247,1,1,Europe/Rome,,,0
2031,2031,TOMMASO NATALE - BESTA,,38.17441367,13.30146557,1,1,Europe/Rome,,,0
2030,2030,TOMMASO NATALE - BESTA,,38.17400354,13.30212552,1,1,Europe/Rome,,,0
9,9,ACC. A29 MONTE - SCHELLEY,,38.17214252,13.29822191,1,1,Europe/Rome,,,0
2039,2039,TOMMASO NATALE - MINUTILLA,,38.17268809,13.3035882,1,1,Europe/Rome,,,0
2038,2038,TOMMASO NATALE - MINUTILLA,,38.17229403,13.3039096,1,1,Europe/Rome,,,0
891,891,GRECA,,38.09728615,13.36749941,1,1,Europe/Rome,,,0
893,893,GUERRA,,38.17901482,13.31736201,1,1,Europe/Rome,,,0
894,894,GUERRAZZI,,38.11592,13.34350167,1,1,Europe/Rome,,,0
895,895,GUIDO ROSSA,,38.08268849,13.36093605,1,1,Europe/Rome,,,0
898,898,HOLM - GUALTIERO,,38.1255769,13.33199912,1,1,Europe/Rome,,,0
899,899,HOLM - LEONARDO DA VINCI,,38.12824189,13.33078668,1,1,Europe/Rome,,,0
1249,1249,NINA SICILIANA - SCUOLA LA TORRE,,38.11638667,13.33192333,1,1,,,40000,0
9049,9049,RESPIGHI - PIAZZA ZIINO,,38.130968685,13.338915065,1,1,Europe/Rome,,,0
9048,9048,PARCO UDITORE,,38.128210055,13.327863935,1,1,Europe/Rome,,,0
1248,1248,NINA SICILIANA - PERPIGNANO,,38.1185821,13.33143845,1,1,Europe/Rome,,,0
9043,9043,BEATO ANGELICO,,38.127383535,13.324555745,1,1,Europe/Rome,,,0
9042,9042,BEATO ANGELICO,,38.127289795,13.32404481,1,1,Europe/Rome,,,0
9041,9041,POLLACI - CALATAFIMI,,38.104150795,13.32952219,1,1,Europe/Rome,,,0
9040,9040,PIAZZA SANTA CRISTINA,,38.128803585,13.298929865,1,1,Europe/Rome,,,0
9047,9047,PARCO UDITORE,,38.128019715,13.326963345,1,1,Europe/Rome,,,0
9045,9045,NOTARBARTOLO,,38.1326738582,13.3422384018,1,1,Europe/Rome,,,0
9044,9044,GALILEI - PACINOTTI,,38.129865965,13.33452049,1,1,Europe/Rome,,,0
641,641,DEI MILLE - LETTERIO,,38.10240572,13.38000953,1,1,Europe/Rome,,,0
1965,1965,SS. MEDIATRICE - BARBARINO,,38.10100434,13.33431707,1,1,Europe/Rome,,,0
1788,1788,S. FILIPPO - COSTELLAZIONE,,38.09300743,13.36035669,1,1,Europe/Rome,,,0
1789,1789,S. FILIPPO - ORSA MAGGIORE,,38.09302333,13.360755,1,1,Europe/Rome,,,0
768,768,ERMELLINO - TROINA,,38.08641154,13.36081401,1,1,Europe/Rome,,,0
769,769,ERMELLINO - TROINA,,38.08637678,13.36091849,1,1,Europe/Rome,,,0
265,265,CALATAFIMI - ALBERGO DELLE POVERE,,38.109135,13.34521167,1,1,Europe/Rome,,,0
763,763,ERMELLINO - LEVRIERE,,38.08718033,13.36534073,1,1,Europe/Rome,,,0
760,760,ERMELLINO - ANTILOPE,,38.08491263,13.3565104,1,1,Europe/Rome,,,0
761,761,ERMELLINO - CAMOSCIO,,38.08503933,13.35708867,1,1,Europe/Rome,,,0
1784,1784,RUGGERI - DI BLASI,,38.12436589,13.31831708,1,1,Europe/Rome,,,0
767,767,ERMELLINO - PAPA GIOVANNI XXIII,,38.086697195,13.362628805,1,1,Europe/Rome,,,0
1786,1786,RUGGERI - LEONARDO DA VINCI,,38.12592729,13.31826344,1,1,Europe/Rome,,,0
1787,1787,RUGGIERO SETTIMO - STABILE,,38.12213172,13.35722151,1,1,Europe/Rome,,,0
1072,1072,MADONIA - SOLI,,38.09894333,13.35564167,1,1,Europe/Rome,,,0
1073,1073,MADONIA - UGHETTI,,38.09902437,13.35609734,1,1,Europe/Rome,,,0
1070,1070,MADONIA - ROCCELLA,,38.09831333,13.351725,1,1,Europe/Rome,,,0
1071,1071,MADONIA - ROCCELLA,,38.09845833,13.35144167,1,1,Europe/Rome,,,0
40000,,EMIRI - NINA SICILIANA,,38.1162472233,13.3318827767,1,1,Europe/Rome,,,1
1678,1678,REGIONE SICILIANA - PIAZZA EISTEIN,,38.12661168,13.3292126,1,1,Europe/Rome,,,0
1679,1679,REGIONE SICILIANA - PITRE',,38.10969333,13.33024667,1,1,Europe/Rome,,,0
1674,1674,REGIONE SICILIANA - PERGUSA,,38.1175386,13.32864761,1,1,Europe/Rome,,,0
1675,1675,REGIONE SICILIANA - PERPIGNANO,,38.11755766,13.32922646,1,1,Europe/Rome,,,0
1676,1676,REGIONE SICILIANA - PERPIGNANO,,38.11984446,13.32846667,1,1,Europe/Rome,,,0
1677,1677,REGIONE SICILIANA - PIAZZA EISTEIN,,38.1274367775,13.32989107,1,1,Europe/Rome,,,0
1670,1670,REGIONE SICILIANA - PALMERINO,,38.098515,13.33284042,1,1,Europe/Rome,,,0
1672,1672,REGIONE SICILIANA - PARATORE,,38.09084264,13.3751893,1,1,Europe/Rome,,,0
1673,1673,"REGIONE SICILIANA - PARCHEGGIO ""DEGLI EMIRI""",,38.11611667,13.32941333,1,1,Europe/Rome,,,0
1095,1095,MAQUEDA - S. ANTONINO,,38.1111994,13.36434271,1,1,Europe/Rome,,,0
1097,1097,MARCHESE PENSABENE,,38.17729416,13.31816888,1,1,Europe/Rome,,,0
1090,1090,MANDERINO - FILISTO,,38.19959167,13.27999667,1,1,Europe/Rome,,,0
1091,1091,MANDERINO - TERENZIO,,38.19833944,13.27812955,1,1,Europe/Rome,,,0
1092,1092,MANDERINO - TERENZIO,,38.19834833,13.27810833,1,1,Europe/Rome,,,0
1093,1093,MAQUEDA - PALAZZO COMITINI,,38.11327795,13.36297855,1,1,Europe/Rome,,,0
1419,1419,PATTI - EINAUDI,,38.17991761,13.31352547,1,1,Europe/Rome,,,0
1411,1411,PARUTA - TERRANOVA,,38.09651359,13.31856787,1,1,Europe/Rome,,,0
1412,1412,PASQUALE CALVI,,38.1303554,13.35493761,1,1,Europe/Rome,,,0
1416,1416,PATERNOSTRO - VILLAFRANCA,,38.12332353,13.35370883,1,1,Europe/Rome,,,0
1322,1322,ORSA MINORE - S. M. DI GESU',,38.09648517,13.37104565,1,1,Europe/Rome,,,0
1323,1323,ORSA MINORE,,38.09418953,13.36711585,1,1,Europe/Rome,,,0
1320,1320,ORSA MINORE - ORSA MAGGIORE,,38.0926739,13.36566344,1,1,Europe/Rome,,,0
1321,1321,ORSA MINORE - S. M. DI GESU',,38.09619487,13.37015286,1,1,Europe/Rome,,,0
1326,1326,OSPEDALE CERVELLO,,38.15424,13.313155,1,1,Europe/Rome,,,0
1327,1327,OSPEDALE CIVICO,,38.10367421,13.35529,1,1,Europe/Rome,,,0
1324,1324,ORSA MINORE,,38.09413167,13.36674833,1,1,Europe/Rome,,,0
1328,1328,PACINOTTI,,38.12925253,13.33510101,1,1,Europe/Rome,,,0
1256,1256,NOTARBARTOLO - MORELLO,,38.13247333,13.344875,1,1,Europe/Rome,,,0
1257,1257,NOTARBARTOLO - PETRARCA,,38.133185,13.34764667,1,1,Europe/Rome,,,0
1254,1254,NOCE - LITTARA,,38.12100666,13.33555833,1,1,Europe/Rome,,,0
1255,1255,NOTARBARTOLO - DI MARIA,,38.13198267,13.34291428,1,1,Europe/Rome,,,0
1521,1521,PIAZZALE JOHN LENNON 544,,38.13155543,13.33095297,1,1,,,50000,0
1250,1250,NISO,,38.20564657,13.31833521,1,1,Europe/Rome,,,0
1523,1523,PIAZZALE JOHN LENNON MONTE,,38.13179844,13.33065525,1,1,,,50000,0
1528,1528,PICCIOTTI - D'AOSTA,,38.10333897,13.38542014,1,1,Europe/Rome,,,0
1258,1258,NOTARBARTOLO - PETRARCA,,38.1332081,13.34755025,1,1,Europe/Rome,,,0
1259,1259,NOTARBARTOLO - SCIUTI,,38.13229097,13.34393654,1,1,Europe/Rome,,,0
309,309,CALATAFIMI,,38.09890887,13.32016331,1,1,Europe/Rome,,,0
300,300,CALATAFIMI - ROCCA,,38.09459482,13.30927134,1,1,Europe/Rome,,,0
301,301,CALATAFIMI - SCUOLA FELTRI,,38.09719797,13.31591192,1,1,Europe/Rome,,,0
302,302,CALATAFIMI - SCUOLA FELTRI,,38.0969843,13.31514403,1,1,Europe/Rome,,,0
303,303,CALATAFIMI - TRASSELLI,,38.10665667,13.33908667,1,1,Europe/Rome,,,0
304,304,CALATAFIMI - VILLA DELLE ROSE,,38.10127386,13.32601117,1,1,Europe/Rome,,,0
305,305,CALATAFIMI - VILLA DELLE ROSE,,38.10120468,13.32556445,1,1,Europe/Rome,,,0
306,306,CALATAFIMI - ZANCLA,,38.10620269,13.33808363,1,1,Europe/Rome,,,0
307,307,CALATAFIMI - ZANCLA,,38.105817855,13.337086195,1,1,Europe/Rome,,,0
117,117,AQUINO 3 VALLE,,38.07502962,13.30966964,1,1,Europe/Rome,,,0
471,471,CONTE FEDERICO - CACCIATORE,,38.09032017,13.39357317,1,1,Europe/Rome,,,0
1898,1898,SAN FRANCESCO DI SALES,,38.08523564,13.3447516,1,1,Europe/Rome,,,0
1894,1894,SAN CIRO - BAGNASCO,,38.09280689,13.38335797,1,1,Europe/Rome,,,0
1895,1895,SAN CIRO - CONTE FEDERICO,,38.09479114,13.38335395,1,1,Europe/Rome,,,0
1896,1896,SAN CIRO - MAREDOLCE,,38.09376524,13.38323593,1,1,Europe/Rome,,,0
1897,1897,SAN CIRO - REGIONE SICILIANA,,38.091211,13.38428602,1,1,Europe/Rome,,,0
1890,1890,SAMMARTINO - SIRACUSA,,38.12592307,13.34941864,1,1,Europe/Rome,,,0
476,476,CONTE FEDERICO - DI VITA,,38.09193507,13.39048058,1,1,Europe/Rome,,,0
2136,2136,VILLAGRAZIA - CATENA,,38.0731483,13.32900167,1,1,Europe/Rome,,,0
958,958,LARGO TRAINA - CATALANO,,38.10169567,13.33929791,1,1,Europe/Rome,,,0
2134,2134,VILLAGRAZIA - BELL'ALBA,,38.07453,13.33052667,1,1,Europe/Rome,,,0
2133,2133,VILLAGRAZIA - BELL'ALBA,,38.07455243,13.33046749,1,1,Europe/Rome,,,0
2130,2130,VILLAGRAZIA - AGNETTA,,38.07944667,13.33432333,1,1,Europe/Rome,,,0
2131,2131,VILLAGRAZIA - BARONE SCALA,,38.08615187,13.34814995,1,1,Europe/Rome,,,0
951,951,LANZA DI SCALEA 2,,38.18550387,13.30215776,1,1,Europe/Rome,,,0
950,950,LANZA DI SCALEA 1,,38.16937,13.31508667,1,1,Europe/Rome,,,0
953,953,LANZA DI SCALEA 1,,38.16892167,13.31524667,1,1,Europe/Rome,,,0
952,952,LANZA DI SCALEA 2,,38.18521157,13.30216667,1,1,Europe/Rome,,,0
2138,2138,VILLAGRAZIA - CILIO,,38.08328167,13.33655333,1,1,Europe/Rome,,,0
2139,2139,VILLAGRAZIA - DELLA VISITAZIONE,,38.08692559,13.34360897,1,1,Europe/Rome,,,0
2002,2002,STRASBURGO - MALTESE,,38.16121,13.32253667,1,1,Europe/Rome,,,0
2003,2003,STRASBURGO - MALTESE,,38.16208333,13.32167,1,1,Europe/Rome,,,0
2000,2000,STRASBURGO - INGEGNEROS,,38.15784833,13.32559833,1,1,Europe/Rome,,,0
2001,2001,STRASBURGO - INGEGNEROS,,38.15759,13.325705,1,1,Europe/Rome,,,0
2006,2006,STRASBURGO - PANTELLERIA,,38.15855333,13.32473833,1,1,Europe/Rome,,,0
2007,2007,STRASBURGO - SVIZZERA,,38.15556667,13.327675,1,1,Europe/Rome,,,0
2004,2004,STRASBURGO - NUOVA,,38.16078,13.32275333,1,1,Europe/Rome,,,0
2005,2005,STRASBURGO - PANTELLERIA,,38.15888,13.32459167,1,1,Europe/Rome,,,0
2008,2008,STRASBURGO - VILLA ADRIANA,,38.163205,13.32073833,1,1,Europe/Rome,,,0
2009,2009,TACITO,,38.197530952,13.275920962,1,1,Europe/Rome,,,0
9074,9074,USCIBENE,,38.10681865,13.32998105,1,1,Europe/Rome,,,0
9072,9072,PITRE' OVEST,,38.110818575,13.329599485,1,1,Europe/Rome,,,0
9073,9073,PERPIGNANO EST,,38.12076513,13.329034695,1,1,Europe/Rome,,,0
9070,9070,EMIRI OVEST,,38.115767555,13.32896083,1,1,Europe/Rome,,,0
9071,9071,PAGANO - LA LOGGIA,,38.10737776,13.33032949,1,1,Europe/Rome,,,0
665,665,DEI MILLE 3,,38.08785867,13.4212726,1,1,Europe/Rome,,,0
1799,1799,S. LORENZO - ANAS,,38.17014401,13.30609755,1,1,Europe/Rome,,,0
664,664,DEI MILLE 2,,38.08458989,13.42500094,1,1,Europe/Rome,,,0
719,719,DIANA - COLONIA COMUNALE,,38.15634257,13.3453846,1,1,Europe/Rome,,,0
718,718,DIANA - CASA NATURA,,38.16764645,13.33919406,1,1,Europe/Rome,,,0
717,717,DIANA - CAMPO OSTACOLI,,38.15317042,13.34867835,1,1,Europe/Rome,,,0
663,663,DEI MILLE 1,,38.087875,13.42109,1,1,Europe/Rome,,,0
1791,1791,S. FILIPPO - SIRIO,,38.09141422,13.36174188,1,1,Europe/Rome,,,0
714,714,DI BLASI - TELESINO,,38.12274011,13.32673622,1,1,Europe/Rome,,,0
713,713,DI BLASI - SCUOLA CORRADINI,,38.12292511,13.32416318,1,1,Europe/Rome,,,0
712,712,DI BLASI - SAVONAROLA,,38.12337207,13.32011819,1,1,Europe/Rome,,,0
711,711,DI BLASI - SAVONAROLA,,38.12346596,13.31995592,1,1,Europe/Rome,,,0
1266,1266,OLIMPO - PALASPORT,,38.18888182,13.31674933,1,1,Europe/Rome,,,0
1265,1265,OLIMPO - EURIPIDE,,38.18911466,13.30427581,1,1,Europe/Rome,,,0
660,660,DEI MILLE - VASSALLO,,38.09833545,13.39292891,1,1,Europe/Rome,,,0
1069,1069,MADONIA - LI BASSI,,38.0984703,13.35397437,1,1,Europe/Rome,,,0
1068,1068,MADONIA - LI BASSI,,38.09850333,13.35402,1,1,Europe/Rome,,,0
1061,1061,MADDALENA - PIAZZA MICCA,,38.10884293,13.30872148,1,1,Europe/Rome,,,0
1065,1065,MADDALENA 1,,38.1068865,13.30957174,1,1,Europe/Rome,,,0
1064,1064,MADDALENA 1,,38.10707064,13.30939104,1,1,Europe/Rome,,,0
1667,1667,REGIONE SICILIANA - NAZARIO SAURO,,38.12531177,13.32965849,1,1,Europe/Rome,,,0
1666,1666,REGIONE SICILIANA - MINEO,,38.13526333,13.33029912,1,1,Europe/Rome,,,0
1665,1665,REGIONE SICILIANA - MAZZARELLO,,38.12164579,13.32865399,1,1,Europe/Rome,,,0
1664,1664,REGIONE SICILIANA - MANDALA',,38.14656646,13.32771745,1,1,Europe/Rome,,,0
1662,1662,REGIONE SICILIANA - LEVRIERE 2,,38.09013556,13.36471703,1,1,Europe/Rome,,,0
1661,1661,REGIONE SICILIANA - LEVRIERE 1,,38.089538,13.36638479,1,1,Europe/Rome,,,0
1660,1660,REGIONE SICILIANA - LA MANNA,,38.12012833,13.32905812,1,1,Europe/Rome,,,0
591,591,DANTE - VILLAFRANCA,,38.12429099,13.35286394,1,1,Europe/Rome,,,0
1086,1086,MALTESE,,38.16210017,13.32334489,1,1,Europe/Rome,,,0
1085,1085,MALASPINA - TURRISI COLONNA,,38.12521677,13.34629638,1,1,Europe/Rome,,,0
592,592,DANTE - XX SETTEMBRE,,38.12480372,13.35477904,1,1,Europe/Rome,,,0
1083,1083,MALASPINA - PIAZZA VIRGILIO,,38.12410734,13.34809784,1,1,Europe/Rome,,,0
599,599,D'AZEGLIO - CORDOVA,,38.14140232,13.346432,1,1,Europe/Rome,,,0
1089,1089,MANDERINO - FILISTO,,38.19955673,13.279991,1,1,Europe/Rome,,,0
1403,1403,PARTANNA MONDELLO - SCORDIA,,38.1915351,13.30098521,1,1,Europe/Rome,,,0
1402,1402,PARTANNA MONDELLO - PIAZZA BOLIVAR,,38.19147892,13.30107609,1,1,Europe/Rome,,,0
1401,1401,PARTANNA MONDELLO - MATOTTA,,38.19290887,13.30222956,1,1,Europe/Rome,,,0
1400,1400,PARTANNA MONDELLO - MATOTTA,,38.19285725,13.30231987,1,1,Europe/Rome,,,0
1546,1546,PISANI - ONORATO,,38.10703952,13.34690407,1,1,Europe/Rome,,,0
449,449,CIACULLI 3,,38.08285211,13.39651957,1,1,Europe/Rome,,,0
448,448,CIACULLI 3,,38.08268743,13.39664698,1,1,Europe/Rome,,,0
1339,1339,PALADINI - BERRETTARO,,38.13722333,13.30804167,1,1,Europe/Rome,,,0
693,693,DEL FANTE - PIAZZETTA SALERNO,,38.15502648,13.33905727,1,1,Europe/Rome,,,0
443,443,CIACULLI 10,,38.07221396,13.41397271,1,1,Europe/Rome,,,0
442,442,CIACULLI 10,,38.07252541,13.4135288,1,1,Europe/Rome,,,0
441,441,CIACULLI 1,,38.08656987,13.39181632,1,1,Europe/Rome,,,0
440,440,CIACULLI 1,,38.08663954,13.39158163,1,1,Europe/Rome,,,0
447,447,CIACULLI 2,,38.08517019,13.39375019,1,1,Europe/Rome,,,0
690,690,DEL FANTE - DEL BERSAGLIERE,,38.052075,13.30952,1,1,Europe/Rome,,,0
445,445,CIACULLI 11,,38.07070525,13.41589183,1,1,Europe/Rome,,,0
444,444,CIACULLI 11,,38.07069364,13.41581807,1,1,Europe/Rome,,,0
696,696,DEL FANTE - TEATRO DELLA VERDURA,,38.15985609,13.33531378,1,1,Europe/Rome,,,0
39,39,ALESSI - PUGLISI,,38.14101071,13.35206442,1,1,Europe/Rome,,,0
33,33,AIRONE - S. FILIPPO,,38.09174433,13.36002747,1,1,Europe/Rome,,,0
32,32,AIRONE - FOLAGA,,38.08928522,13.35640019,1,1,Europe/Rome,,,0
31,31,AIRONE - FOLAGA,,38.08939132,13.35676119,1,1,Europe/Rome,,,0
